stop_id,stop_code,stop_name,stop_desc,stop_lat,stop_lon,zone_id,stop_url,location_type,parent_station,stop_timezone,wheelchair_boarding
150604002,,"Niederpallen, Veräinsbau",,49.754923,5.911433,,,0,,,0
150604001,,"Niederpallen, Ditzebierg",,49.755557,5.908227,,,0,,,0
190902003,,"Holzem, Mamerstrooss",,49.617933,5.998663,,,0,,,0
161102001,,Bour,,49.700996,6.018055,,,0,,,0
110822004,,"Maulusmühle, Gare",,50.094115,6.026793,,,0,,,0
110306001,,Kalborn/Kaalber,,50.102164,6.111834,,,0,,,0
110822002,,Féitsch,,50.036125,5.886585,,,0,,,0
190501001,,"Eischen, Denn",,49.683943,5.87872,,,0,,,0
400000107,,Chur,,46.877039,9.533046,,,0,,,0
400000104,,"Nancy, Ville",,48.689789,6.174022,,,0,,,0
400000103,,"Villerupt,Saint Nicolas",,49.473748,5.935436,,,0,,,0
400000106,,Basel SBB,,47.547404,7.589566,,,0,,,0
400000105,,"Rumelange, A Wiendelen",,49.450691,6.025718,,,0,,,0
150203002,,"Proz, Bousserpad",,49.805865,5.939703,,,0,,,0
400000100,,"Audun-le-Tiche, Place du Château",,49.467116,5.954789,,,0,,,0
150203001,,"Proz, Altersheem",,49.799042,5.938522,,,0,,,0
150203004,,"Proz, Folschterstrooss",,49.802758,5.933464,,,0,,,0
400000102,,"Villerupt, Barbusse",,49.470435,5.930617,,,0,,,0
150203003,,"Proz, Brakegaertchen",,49.806102,5.931306,,,0,,,0
400000101,,"Audun-le-Tiche, Résidence Vian",,49.474745,5.93946,,,0,,,0
200702003,,"Neihaischen, Kiischtewee",,49.623606,6.234568,,,0,,,0
150203006,,"Proz, Zentrum",,49.80263,5.937795,,,0,,,0
200702002,,"Neuhaeusgen, Iewescht Neihaischen",,49.622697,6.242818,,,0,,,0
150203005,,"Proz, Haaptstrooss",,49.802378,5.938478,,,0,,,0
200702001,,Ennescht Neihaischen,,49.622693,6.23174,,,0,,,0
220204008,,"Oberkorn, Aquasud",,49.512875,5.890625,,,0,,,0
220204006,,"Obercorn, Rousegaertchen",,49.516379,5.894493,,,0,,,0
210905001,,Gondelengermillen,,49.548766,6.27703,,,0,,,0
140802001,,"Oberfeulen, Pl.de la Chapelle",,49.84709,6.034237,,,0,,,0
140802002,,"Oberfeulen, route d'Arlon",,49.8461,6.030012,,,0,,,0
140802003,,"Oberfeulen, Op Hopericht",,49.848351,6.035704,,,0,,,0
210103003,,"Erpeldange/Bous, Scheierbierg",,49.542503,6.324785,,,0,,,0
200403020,,"Belair, Wampach",,49.609813,6.120552,,,0,,,0
200403022,,"Luxembourg, Square New York",,49.613243,6.115974,,,0,,,0
210103001,,"Erpeldange/Bous, Kräizgaass",,49.546023,6.327233,,,0,,,0
200403021,,"Belair, Wandmillen",,49.615851,6.102611,,,0,,,0
210103002,,"Erpeldange/Bous, Rollengerstrooss",,49.546754,6.324981,,,0,,,0
200403023,,"Belair, Glaesener-Hartmann",,49.611655,6.101378,,,0,,,0
190902002,,"Holzem, Festsall",,49.615998,5.993119,,,0,,,0
190902001,,"Holzem, Bréck",,49.614176,5.990157,,,0,,,0
220204001,,"Obercorn, LTMA Annexe Jenker",,49.517588,5.901961,,,0,,,0
110810001,,"Hamiville, Maison 3",,50.044812,5.896179,,,0,,,0
220204004,,"Obercorn, Place St Jean",,49.515703,5.897092,,,0,,,0
110810002,,"Hamiville, Maison 31",,50.047496,5.901007,,,0,,,0
220204005,,"Obercorn, Poste",,49.514804,5.896458,,,0,,,0
220204002,,"Obercorn, Chiers",,49.5167,5.891681,,,0,,,0
220204003,,"Obercorn, Neiduerf",,49.514482,5.902558,,,0,,,0
151001001,,Brattert,,49.855696,5.908181,,,0,,,0
221301002,,"Belval-Rédange, Gare",,49.503152,5.923693,,,0,,,0
200415001,,"Hollerich, Alphonse Munchen",,49.604438,6.114971,,,0,,,0
200415002,,"Hollerich, Assurances Sociales",,49.597256,6.117762,,,0,,,0
200415003,,"Hollerich, Fonderie",,49.598619,6.126263,,,0,,,0
200415004,,"Hollerich, Gare",,49.595141,6.120987,,,0,,,0
200415005,,"Hollerich, Heentze Park",,49.601431,6.119966,,,0,,,0
180801001,,"Ahn, Beim Quai",,49.627951,6.423946,,,0,,,0
180801002,,"Ahn, Op der Breck",,49.627891,6.421249,,,0,,,0
180801003,,"Ahn, Op der Musel",,49.625575,6.422299,,,0,,,0
160910002,,Essen,,49.777828,6.116893,,,0,,,0
210402003,,"Lenningen, Hakenhaff",,49.604244,6.280791,,,0,,,0
160910001,,Bënzert,,49.753313,6.139356,,,0,,,0
210402001,,"Lenningen, Am Aker",,49.600339,6.366687,,,0,,,0
210402002,,"Lenningen, Basilika",,49.600911,6.367681,,,0,,,0
221301007,,"Belvaux, Gemeng",,49.511217,5.929915,,,0,,,0
200415006,,"Hollerich, Jean-Baptiste Merkels",,49.599207,6.122395,,,0,,,0
221301008,,"Belvaux, Grenz",,49.501158,5.920765,,,0,,,0
200415007,,"Hollerich, Marie Adelaïde",,49.604344,6.116998,,,0,,,0
221301009,,"Belvaux, Henri Tudor",,49.510803,5.934321,,,0,,,0
200415008,,"Hollerich, Nancy",,49.603409,6.118451,,,0,,,0
200415009,,"Hollerich, P+R Bouillon",,49.599997,6.107205,,,0,,,0
221301003,,"Belvaux, Batting",,49.50778,5.923126,,,0,,,0
221301004,,"Belvaux, Belval",,49.501346,5.937675,,,0,,,0
110408001,,"Untereisenbach, Bréck",,50.000092,6.144741,,,0,,,0
221301005,,"Belvaux, Brill",,49.508892,5.943338,,,0,,,0
221301006,,"Belvaux-Soleuvre, Gare",,49.514425,5.924712,,,0,,,0
200415010,,"Hollerich, Pierre & Paul",,49.598897,6.119354,,,0,,,0
200415011,,"Hollerich, Poincaré",,49.602274,6.116608,,,0,,,0
150502007,,"Bigonville, Haaptstrooss",,49.851174,5.79187,,,0,,,0
200415012,,"Hollerich, Salzhaff",,49.600004,6.117905,,,0,,,0
150502006,,"Bigonville, Am Duerf",,49.847719,5.792851,,,0,,,0
200415013,,"Hollerich, Schluechthaus",,49.600322,6.117318,,,0,,,0
150502005,,"Bigonville, Réimerwee",,49.845557,5.791756,,,0,,,0
150502004,,"Bigonville, Knupp",,49.853009,5.790552,,,0,,,0
200415015,,"Hollerich, Garage AVL",,49.598983,6.104788,,,0,,,0
150502003,,"Bigonville, Kimm",,49.838504,5.783974,,,0,,,0
200415016,,"Hollerich, AVL Portal",,49.599162,6.105442,,,0,,,0
150502002,,"Bigonville, Kéismaart",,49.848649,5.792636,,,0,,,0
150502001,,"Bigonville, Huelgaass",,49.850923,5.793529,,,0,,,0
190202001,,"Fingig, Am Duerf",,49.602613,5.900504,,,0,,,0
190202003,,"Fingig, Maerchen",,49.602851,5.909722,,,0,,,0
190202002,,"Fingig, Dillesbierg",,49.600851,5.900879,,,0,,,0
200415017,,"Hollerich, P+R Bouillon Ext.",,49.599615,6.112073,,,0,,,0
221301022,,"Belvaux, Uewerkurerstrooss",,49.514315,5.921237,,,0,,,0
141301001,,"Schieren, Centre sportif",,49.830328,6.100962,,,0,,,0
221301024,,"Belvaux, Wenschel",,49.504778,5.921891,,,0,,,0
190300503,,"Bettange, Spillplaz",,49.574151,5.985358,,,0,,,0
141301004,,"Schieren, Neie Wee",,49.827936,6.096321,,,0,,,0
141301005,,"Schieren, Uewerschieren",,49.827923,6.096169,,,0,,,0
141301002,,"Schieren, Faubourg",,49.833795,6.097514,,,0,,,0
221301020,,"Belvaux, Stadium",,49.507584,5.926592,,,0,,,0
141301003,,"Schieren, Gare",,49.829798,6.095222,,,0,,,0
221104001,,"Livange, Am Duerf",,49.529922,6.119031,,,0,,,0
221104002,,"Livange, Geespelt",,49.534013,6.125094,,,0,,,0
141301006,,"Schieren, Vali's Plaz",,49.833024,6.097602,,,0,,,0
141301007,,"Schieren, Porte de Schieren",,49.82467,6.095947,,,0,,,0
160909002,,"Schoenfels, Schlass",,49.719204,6.091563,,,0,,,0
221301026,,"Belvaux, Lycée Bel-Val",,49.50321,5.937711,,,0,,,0
160909001,,"Schoenfels, Duerf",,49.717743,6.089999,,,0,,,0
221301027,,"Belvaux, Um Bedding",,49.502821,5.943413,,,0,,,0
221301028,,"Belvaux, Ënnert Zolwerwee",,49.513021,5.931433,,,0,,,0
221301011,,"Belvaux, Boulodrome",,49.513875,5.947739,,,0,,,0
221301012,,"Belvaux, Milliounelach",,49.50455,5.930927,,,0,,,0
221301013,,"Belvaux, Paquetbierg",,49.515757,5.935213,,,0,,,0
120305001,,Kleinhoscheid,,50.018537,5.96633,,,0,,,0
150101001,,"Beckerich, Bei Schmatten",,49.730101,5.883572,,,0,,,0
180502001,,"Beidweiler, Am Duerf",,49.728236,6.301414,,,0,,,0
150101003,,"Beckerich, Kiircheplaz",,49.732161,5.884898,,,0,,,0
180502002,,"Beidweiler, Op der Gare",,49.732265,6.302148,,,0,,,0
150101002,,"Beckerich, Fraiheetsbam",,49.727957,5.891162,,,0,,,0
221301018,,"Belvaux, Roudewee Schoul",,49.512716,5.940986,,,0,,,0
170405005,,Colbette,,49.768814,6.303952,,,0,,,0
221301019,,"Belvaux, Belval Lyçée",,49.501554,5.934306,,,0,,,0
170405003,,Mechelshaff,,49.775125,6.381823,,,0,,,0
150514001,,Weissenhaff,,49.839049,5.82592,,,0,,,0
170405004,,Rosswinklerhaff,,49.769979,6.372642,,,0,,,0
221301014,,"Belvaux, Gemeng/Post",,49.510952,5.92873,,,0,,,0
170405001,,Jemenerhaff,,49.773589,6.299256,,,0,,,0
221301015,,"Belvaux, Postschoul",,49.508381,5.925119,,,0,,,0
170405002,,Leiwerdelt,,49.794684,6.370749,,,0,,,0
221301016,,"Belvaux, Roudewee",,49.510311,5.938842,,,0,,,0
200505005,,"Oberanven, Rue Schetzel",,49.659228,6.239311,,,0,,,0
200505004,,"Oberanven, rue d'Ernster",,49.661641,6.239383,,,0,,,0
200505003,,"Oberanven, Routstrach",,49.658145,6.248602,,,0,,,0
200505002,,"Oberanven, Gemeng",,49.659094,6.242756,,,0,,,0
200505001,,"Oberanven, Fielsenhaus",,49.657566,6.243923,,,0,,,0
210701018,,"Remich, Wueswee",,49.546901,6.37219,,,0,,,0
150801001,,"Everlange, Beim Engel",,49.775487,5.953135,,,0,,,0
210701019,,"Remich, Cimetière",,49.545212,6.358856,,,0,,,0
110809001,,"Hachiville, Centre",,50.107812,5.923159,,,0,,,0
110809002,,"Hachiville, Kiirfecht",,50.104658,5.923305,,,0,,,0
210701010,,"Remich, Parking Um Gréin",,49.540879,6.366112,,,0,,,0
140401012,,"Diekirch, Fielserstrooss",,49.86361,6.162904,,,0,,,0
210701011,,"Remich, Piscine",,49.539616,6.364369,,,0,,,0
210701012,,"Remich, Pl. Nico Klopp",,49.546651,6.361612,,,0,,,0
210701013,,"Remich, Police",,49.546153,6.365801,,,0,,,0
210701014,,"Remich, rte de Luxembourg",,49.546425,6.357242,,,0,,,0
210701015,,"Remich, rue de la Corniche",,49.553676,6.377371,,,0,,,0
210701016,,"Remich, Station Viti-Vinicole",,49.543655,6.357253,,,0,,,0
210701017,,"Remich, Op der Kopp",,49.547218,6.355305,,,0,,,0
140401010,,"Diekirch, Place des Récollets",,49.870236,6.158716,,,0,,,0
150305001,,"Roodt/Redange, Schoul",,49.794072,5.820581,,,0,,,0
121008001,,Sonlez-Koschter,,49.964323,5.826134,,,0,,,0
110605001,,"Huldange, Eglise",,50.16372,6.014323,,,0,,,0
110605002,,"Huldange, Grotte",,50.162859,6.013004,,,0,,,0
140401008,,"Diekirch, Lorentzwues",,49.860161,6.145558,,,0,,,0
110605003,,"Huldange, Groussefeld",,50.16572,6.01896,,,0,,,0
210701007,,"Remich, Gewännchen",,49.547997,6.36501,,,0,,,0
140401009,,"Diekirch, Neie Kolleisch",,49.864814,6.168386,,,0,,,0
110605004,,"Huldange, Helzt",,50.159653,6.003822,,,0,,,0
210701008,,"Remich, Maatebierg",,49.548613,6.375886,,,0,,,0
110605005,,"Huldange, Lenglerlooch",,50.165725,6.025822,,,0,,,0
210701009,,"Remich, Maison St. Joseph",,49.543176,6.363071,,,0,,,0
110605006,,"Huldange, Schmitt",,50.180506,6.024441,,,0,,,0
200301001,,"Alzingen, Gässel",,49.567624,6.16369,,,0,,,0
110605007,,"Huldange, Scierie",,50.170523,6.024894,,,0,,,0
110605008,,"Huldange, Maison Knauf",,50.160836,6.029178,,,0,,,0
140401001,,"Diekirch, Altersheem",,49.866572,6.159362,,,0,,,0
170802001,,"Haler, Beim Basseng",,49.814937,6.282426,,,0,,,0
140401002,,"Diekirch, Astron Buildings S.A.",,49.860915,6.146947,,,0,,,0
170802002,,"Haller, Schoul",,49.820063,6.282361,,,0,,,0
200301003,,"Alzingen, Trapeneck",,49.567738,6.161027,,,0,,,0
210701001,,"Remich, Belvédère",,49.550748,6.376408,,,0,,,0
140401003,,"Diekirch, Dräi Braken",,49.879834,6.150996,,,0,,,0
200301002,,"Alzingen, Hondsbréck",,49.564612,6.162301,,,0,,,0
210701002,,"Remich, Cactus",,49.547843,6.360235,,,0,,,0
140401004,,"Diekirch, Gare",,49.864502,6.153068,,,0,,,0
210701003,,"Remich, Caves St. Martin",,49.553414,6.380496,,,0,,,0
140401005,,"Diekirch, Kleck",,49.868737,6.172082,,,0,,,0
210701004,,"Remich, Place de la résistance",,49.54463,6.368468,,,0,,,0
140401006,,"Diekirch, Kluuster",,49.869889,6.158151,,,0,,,0
210701005,,"Remich, Rue de la Gare",,49.545518,6.363194,,,0,,,0
140401007,,"Diekirch, rue Merten",,49.864995,6.168793,,,0,,,0
180101001,,"Banzelt, Ort",,49.67289,6.329265,,,0,,,0
210701006,,"Remich, Gare routière",,49.542791,6.368277,,,0,,,0
140306002,,"Lipperscheid, Leweck",,49.922867,6.093224,,,0,,,0
140306001,,"Lipperscheid, Ale Kiirfecht",,49.918033,6.084849,,,0,,,0
220802010,,"Foetz, Rond Point",,49.525486,6.004345,,,0,,,0
180203001,,"Boudlerbach, Boudlerbaach",,49.717557,6.35283,,,0,,,0
110601003,,"Bellain, Gare",,50.151094,5.978344,,,0,,,0
110601002,,"Basbellain, Wilmes",,50.139159,5.985003,,,0,,,0
110601001,,"Basbellain, Eglise",,50.145008,5.982311,,,0,,,0
160501001,,"Heffingen, Al Gemeng",,49.769408,6.240235,,,0,,,0
160501002,,"Heffingen, Centre",,49.770399,6.239915,,,0,,,0
190607001,,Direndall,,49.689389,6.090445,,,0,,,0
160501003,,"Heffingen, Rue de Christnach",,49.770945,6.244704,,,0,,,0
170704005,,"Rosport, Source",,49.811317,6.494098,,,0,,,0
160501004,,"Heffingen, Thommes",,49.76325,6.241529,,,0,,,0
160501005,,"Heffingen, Soup",,49.767222,6.23004,,,0,,,0
170704001,,"Rosport, Camping",,49.808638,6.502521,,,0,,,0
170704002,,"Rosport, Centr.Electrique",,49.79331,6.507131,,,0,,,0
170704003,,"Rosport, Haaptstr. Lokal",,49.80447,6.503639,,,0,,,0
170704004,,"Rosport, Haaptstrooss II",,49.804581,6.503786,,,0,,,0
141002001,,Savelborn,,49.811246,6.252563,,,0,,,0
220601020,,"Kayl, Sportshal",,49.480664,6.037143,,,0,,,0
8800274,,Vielsalm,,50.2424562,5.8989182,,,0,,,0
220601021,,"Kayl, Brill",,49.485185,6.044355,,,0,,,0
201103002,,"Weiler-la-Tour, Gëltz",,49.542,6.199419,,,0,,,0
201103001,,"Weiler-la-Tour, Camping",,49.547373,6.174016,,,0,,,0
201103004,,"Weiler-la-Tour, Schlammestee",,49.533793,6.180094,,,0,,,0
201103003,,"Weiler-la-Tour, Huehlgaass",,49.539484,6.194337,,,0,,,0
191004001,,Leesbach,,49.701594,5.985574,,,0,,,0
150510001,,"Martelange, Gare",,49.8327,5.742424,,,0,,,0
201103005,,"Weiler-la-Tour, Pekebierg",,49.546274,6.203171,,,0,,,0
150510002,,"Martelange, Leekoll",,49.825161,5.752679,,,0,,,0
170401001,,Breidweiler (Präitler),,49.777351,6.302784,,,0,,,0
120403004,,"Dahl, Waassertuurm",,49.935444,5.969269,,,0,,,0
120403003,,"Dahl, Al Molkerei",,49.934406,5.976024,,,0,,,0
120403002,,"Dahl, Masselerstrooss",,49.934645,5.97863,,,0,,,0
120403001,,"Dahl, Ale Wee",,49.93568,5.975541,,,0,,,0
170602001,,"Boursdorf, Am Duerf",,49.764172,6.478018,,,0,,,0
190304002,,"Sprinkange, Place de l'Eglise",,49.580427,5.964244,,,0,,,0
220601014,,"Kayl, Eecherwee",,49.482534,6.043051,,,0,,,0
220601015,,"Kayl, Gare",,49.484631,6.035357,,,0,,,0
220601017,,"Kayl, Police",,49.486894,6.035551,,,0,,,0
220601010,,"Kayl, Bréck",,49.487204,6.034994,,,0,,,0
190304005,,"Sprinkange, Beim Kräiz",,49.577825,5.961071,,,0,,,0
220601011,,"Kayl, Broucherbierg",,49.495902,6.036001,,,0,,,0
190304004,,Sprinkange/Sprénkeng,,49.580033,5.965362,,,0,,,0
220601012,,"Kayl, Cité Berens",,49.481288,6.042891,,,0,,,0
190304003,,"Sprinkange, Um Kierker",,49.585193,5.965512,,,0,,,0
220601013,,"Kayl, Diddelengerstrooss",,49.48489,6.051111,,,0,,,0
220102021,,ZI Riedgen-John Zink,,49.501268,6.105713,,,0,,,0
220102022,,"Bettembourg, Coin Mertens / Marie-Thérèse",,49.517225,6.110271,,,0,,,0
200407012,,"Cessange, Tubishaff",,49.58585,6.107019,,,0,,,0
120706001,,"Mecher, Dueref",,50.040009,6.015807,,,0,,,0
220601018,,"Kayl, Rue de Noertzange",,49.495977,6.04945,,,0,,,0
170102001,,Dillingen Déiljen,,49.852394,6.319769,,,0,,,0
220102020,,ZI Riedgen-Novelis,,49.485081,6.111405,,,0,,,0
200407011,,"Cessange, Rue Verte",,49.589477,6.11501,,,0,,,0
200407010,,"Cessange, Rue de Leudelange",,49.582324,6.097708,,,0,,,0
110802003,,"Asselborn, Scierie",,50.098116,5.972114,,,0,,,0
220802008,,"Foetz, Laach",,49.532566,6.01685,,,0,,,0
110802002,,"Asselborn, Pickes",,50.09727,5.971426,,,0,,,0
220802009,,"Foetz, Lampertsheck",,49.524976,6.005496,,,0,,,0
220802006,,"Foetz, Galgen",,49.532469,6.01658,,,0,,,0
220802007,,"Foetz, Horgaertchen",,49.524989,6.005633,,,0,,,0
220802004,,"Foetz, Butterbrill",,49.521979,6.009604,,,0,,,0
220802005,,"Foetz, Feitzerhaff",,49.528318,6.010184,,,0,,,0
220802002,,"Foetz, Bourfeld",,49.528354,6.010514,,,0,,,0
120101004,,"Boulaide, Post",,49.887438,5.815615,,,0,,,0
220802003,,"Foetz, Brill",,49.521264,6.01049,,,0,,,0
120101003,,"Boulaide, Camping",,49.889989,5.815141,,,0,,,0
200305003,,"Itzig, An den Espen",,49.586349,6.167502,,,0,,,0
220601003,,"Kayl, An der Burg",,49.484731,6.05333,,,0,,,0
200305002,,"Itzig, Am Kiemert",,49.582078,6.166891,,,0,,,0
220802001,,"Foetz, Am Bauch",,49.525083,6.004757,,,0,,,0
220601004,,"Kayl, Arbed'shaff",,49.476243,6.006634,,,0,,,0
200305005,,"Itzig, Hubertuspad",,49.587268,6.169787,,,0,,,0
220601005,,"Kayl, Barrière",,49.493118,6.036529,,,0,,,0
200305004,,"Itzig, Dellbierg",,49.58899,6.171016,,,0,,,0
200407009,,"Cessange, Kuelebierg",,49.588241,6.11125,,,0,,,0
200305001,,"Itzig, Am Horra",,49.585417,6.177975,,,0,,,0
110802001,,"Asselborn, Centre",,50.0964,5.973929,,,0,,,0
220601001,,"Kayl, abri P.&Ch.",,49.491813,6.04669,,,0,,,0
220601002,,"Kayl, Am Pull",,49.489173,6.038797,,,0,,,0
200407004,,"Cessange, Barrès",,49.595865,6.115727,,,0,,,0
200407003,,"Cessange, Artisans",,49.594432,6.109874,,,0,,,0
130107003,,"Weiler/Pütscheid, Gemengebau",,49.962103,6.124385,,,0,,,0
200407002,,"Cessange, Antoine",,49.584018,6.100305,,,0,,,0
130107002,,Weiler,,50.10426,5.943277,,,0,,,0
200407001,,"Cessange, Am Eck",,49.585783,6.099315,,,0,,,0
200305007,,"Itzig, Kierch",,49.585949,6.171773,,,0,,,0
220601007,,"Kayl, Poste",,49.486863,6.041367,,,0,,,0
200407008,,"Cessange, Kierch",,49.589073,6.106731,,,0,,,0
200305006,,"Itzig, Kapell",,49.584501,6.169934,,,0,,,0
200407007,,"Cessange, Fischerhaff",,49.591376,6.105654,,,0,,,0
200305009,,"Hesperange, Um Schlass",,49.57213,6.144656,,,0,,,0
220601009,,"Kayl, Stellwierk",,49.501627,6.038929,,,0,,,0
200407006,,"Cessange, Duerf",,49.587188,6.103314,,,0,,,0
200305008,,"Itzig, Klouschter",,49.585913,6.173962,,,0,,,0
200407005,,"Cessange, Boy Konen",,49.581445,6.097109,,,0,,,0
120101002,,"Baschleiden, Kiirch",,49.898611,5.818222,,,0,,,0
120101001,,"Baschleiden, Elber",,49.894755,5.816359,,,0,,,0
221006001,,"Wickrange, Rumbaach",,49.540268,6.021068,,,0,,,0
200420015,,"Merl, St. Gengoul",,49.602693,6.094518,,,0,,,0
200419026,,"Limpertsberg, Lycée Robert Schuman",,49.618052,6.125563,,,0,,,0
200419027,,"Limpertsberg, Lycée Vauban",,49.62515,6.117958,,,0,,,0
200419024,,"Limpertsberg, Lefèvre",,49.622321,6.108071,,,0,,,0
200419025,,"Limpertsberg, Lycée de Garçons",,49.620096,6.122742,,,0,,,0
200420011,,"Merl, Orval",,49.605826,6.1025,,,0,,,0
200420012,,"Merl, Parc",,49.607447,6.110114,,,0,,,0
200420013,,"Merl, Plaak",,49.603056,6.088904,,,0,,,0
200419028,,"Limpertsberg, N.S.Pierret",,49.620703,6.118566,,,0,,,0
200420014,,"Merl, St.Hubert",,49.603986,6.092974,,,0,,,0
200419029,,"Limpertsberg, Neumanns-Park",,49.620879,6.107616,,,0,,,0
220102007,,"Bettembourg, Mosselter",,49.506102,6.12604,,,0,,,0
220102008,,"Bettembourg, Parc Merveilleux",,49.509356,6.118707,,,0,,,0
220102009,,"Bettembourg, Peppenger Schleid",,49.52007,6.114705,,,0,,,0
220102003,,"Bettembourg, Am Dreieck",,49.519594,6.109689,,,0,,,0
200419022,,"Limpertsberg, L.T.Michel Lucius",,49.624702,6.115159,,,0,,,0
220102004,,"Bettembourg, Café du Stadion",,49.513226,6.110106,,,0,,,0
200419023,,"Limpertsberg, Léandre Lacroix",,49.622226,6.114682,,,0,,,0
220102005,,"Bettembourg, Gare",,49.516569,6.10206,,,0,,,0
200419020,,"Luxembourg, Uni Campus Limpertsberg",,49.620972,6.114548,,,0,,,0
220102006,,"Bettembourg, Kiircheplaz",,49.518338,6.097616,,,0,,,0
200419021,,"Limpertsberg, L.T.C.",,49.624377,6.114721,,,0,,,0
220102001,,"Bettembourg, 12 Gargullen",,49.525706,6.100815,,,0,,,0
220102002,,"Bettembourg, Al Gemeng",,49.520113,6.09986,,,0,,,0
120903008,,"Wiltz, Pompjeesbau",,49.964976,5.925434,,,0,,,0
120903007,,"Wiltz,Erpeldangerst.",,49.976547,5.942497,,,0,,,0
120903006,,"Wiltz, Brandbau",,49.962489,5.934797,,,0,,,0
120903005,,"Wiltz, Belle Vue",,49.963454,5.937623,,,0,,,0
120903004,,"Wiltz, Gaassebréck",,49.96933,5.930192,,,0,,,0
201001001,,"Bereldange, Elterstrachen",,49.660929,6.125905,,,0,,,0
120903003,,"Wiltz, Batzendelt",,49.957755,5.934735,,,0,,,0
120903002,,"Wiltz, Aneschbaach",,49.968282,5.92189,,,0,,,0
200420010,,"Merl, Op der Millen",,49.603459,6.084921,,,0,,,0
120903001,,"Wiltz, Aalen Tipp",,49.95903,5.908912,,,0,,,0
201001003,,"Bereldange, Schoul",,49.653238,6.127411,,,0,,,0
201001002,,"Bereldange, Police",,49.656147,6.127157,,,0,,,0
200419035,,"Limpertsberg, Wassertuerm",,49.623856,6.122355,,,0,,,0
220102019,,ZI Riedgen-Husky,,49.490874,6.112086,,,0,,,0
200419030,,"Limpertsberg, Parking Glacis",,49.617496,6.124917,,,0,,,0
220102015,,"Bettembourg, Krackelshaff-IFSB",,49.508151,6.10253,,,0,,,0
200419034,,"Limpertsberg, Square André",,49.623686,6.119484,,,0,,,0
220102016,,"Bettembourg, Krackelshaff-MOOG",,49.507579,6.106971,,,0,,,0
200419031,,"Limpertsberg, Rue des Glacis",,49.621392,6.128925,,,0,,,0
220102017,,"Bettembourg, Krackelshaff-P&T",,49.504542,6.109292,,,0,,,0
200419032,,"Limpertsberg, Schueberfouer",,49.614789,6.121338,,,0,,,0
220102010,,"Bettembourg, Place de la Paix",,49.519821,6.095041,,,0,,,0
220102011,,"Bettembourg, Rousegärtchen",,49.520224,6.091396,,,0,,,0
170204001,,Hersberg/Heeschbreg,,49.755851,6.327666,,,0,,,0
220102012,,"Bettembourg, Route d'Abweiler",,49.524878,6.087582,,,0,,,0
220102013,,"Bettembourg, Fankenacker",,49.52859,6.101736,,,0,,,0
180703006,,"Wasserbillig, Rue des Celtes",,49.717693,6.497646,,,0,,,0
180703005,,"Wasserbillig, Op der Bréck",,49.714379,6.505835,,,0,,,0
180703007,,"Wasserbillig, Rue des Roses",,49.715018,6.495841,,,0,,,0
180703002,,"Wasserbillig, Cimetière",,49.718138,6.499496,,,0,,,0
180703001,,"Wasserbillig, Centre",,49.715476,6.500784,,,0,,,0
180703004,,"Wasserbillig, Marais",,49.711504,6.494343,,,0,,,0
180703003,,"Wasserbillig, Gare",,49.713092,6.499131,,,0,,,0
200419004,,"Limpertsberg, Allée Scheffer",,49.61823,6.124029,,,0,,,0
200419005,,"Limpertsberg, Arts & Métiers",,49.621995,6.126757,,,0,,,0
210803006,,"Stadtbredimus, Wandmillen",,49.562676,6.372394,,,0,,,0
200419002,,"Limpertsberg, Alen Tramsschapp",,49.621969,6.120624,,,0,,,0
200419003,,"Limpertsberg, Alfred de Musset",,49.619011,6.122142,,,0,,,0
210803004,,"Stadtbredimus, Schoul",,49.563692,6.363294,,,0,,,0
200419008,,"Limpertsberg, Batty Weber",,49.622289,6.116866,,,0,,,0
210803005,,"Stadtbredimus, Vinsmoselle",,49.564362,6.368583,,,0,,,0
200419009,,"Limpertsberg, Bd.P. Eyschen",,49.619446,6.127004,,,0,,,0
210803002,,"Stadtbredimus, Kreizgaass",,49.563717,6.364385,,,0,,,0
200419006,,"Limpertsberg, Av.V.Hugo",,49.61871,6.124874,,,0,,,0
140503003,,"Stegen, Kreiz",,49.829553,6.173326,,,0,,,0
110102003,,"Eselborn, Op der Sang",,50.06304,5.98489,,,0,,,0
210803003,,"Stadtbredimus, Schleis",,49.566833,6.362557,,,0,,,0
200419007,,"Limpertsberg, Avenir",,49.62544,6.120198,,,0,,,0
140503001,,"Stegen, Bloen Eck",,49.827794,6.177906,,,0,,,0
210803001,,"Stadtbredimus, Dicksstrooss",,49.56239,6.359035,,,0,,,0
140503002,,"Stegen, Eglise",,49.828833,6.168904,,,0,,,0
180506001,,"Eschweiler/Junglinster, Bei der Kiirch",,49.717179,6.310283,,,0,,,0
200419001,,"Limpertsberg, Alen Eecherbierg",,49.621874,6.129492,,,0,,,0
120903028,,"Wiltz, op der Hiel",,49.972055,5.931511,,,0,,,0
120903027,,"Wiltz, an der Elsass",,49.968525,5.917467,,,0,,,0
120903026,,"Wiltz, an der Driicht",,49.968458,5.925798,,,0,,,0
110102002,,"Eselborn, Neidierfchen",,50.059725,6.003124,,,0,,,0
120903025,,"Wiltz, Wanselerstrooss",,49.963451,5.918823,,,0,,,0
110102001,,"Eselborn, Dueref",,50.06259,6.001898,,,0,,,0
120903024,,"Wiltz, Burrewee",,49.963833,5.934586,,,0,,,0
120903023,,"Wiltz, Lycée du Nord",,49.963309,5.924327,,,0,,,0
120903022,,"Wiltz, Lycée (navette)",,49.961256,5.921195,,,0,,,0
120903021,,"Wiltz, Lann",,49.968044,5.930553,,,0,,,0
110404001,,Kounenhaff,,50.016813,6.136239,,,0,,,0
200420004,,"Merl, Conservatoire",,49.602262,6.105659,,,0,,,0
200419015,,"Luxembourg, Siggy vu Lëtzebuerg",,49.626363,6.114645,,,0,,,0
200420005,,"Merl, Geesseknäppchen (N)",,49.603601,6.108487,,,0,,,0
200419016,,"Limpertsberg, Glacis / Grand Théâtre",,49.61768,6.125806,,,0,,,0
200420006,,"Merl, Geesseknäppchen (S)",,49.601755,6.113455,,,0,,,0
200419013,,"Limpertsberg, Crispinus",,49.619319,6.130224,,,0,,,0
130202002,,"Bettel, Schmedd",,49.917012,6.225376,,,0,,,0
200420007,,"Merl, Kiirfecht",,49.609852,6.099436,,,0,,,0
200419014,,"Limpertsberg, Ermesinde",,49.61918,6.117022,,,0,,,0
200419019,,"Limpertsberg, Henri VII",,49.617922,6.119257,,,0,,,0
200420001,,"Merl, Athénée",,49.60522,6.11098,,,0,,,0
130202001,,"Bettel, Bei der Bréck",,49.920892,6.224736,,,0,,,0
200420002,,"Merl, Barrière",,49.602163,6.097069,,,0,,,0
160603001,,"Heffingen, Scherfemillen",,49.782214,6.231755,,,0,,,0
200419017,,"Limpertsberg, Glacis/Nikloskierfecht",,49.615627,6.120638,,,0,,,0
200420003,,"Merl, Celtes",,49.60166,6.09458,,,0,,,0
200419018,,"Limpertsberg, Guillaume Schneider",,49.620517,6.12413,,,0,,,0
200420008,,"Merl, Laang Heck",,49.605406,6.097956,,,0,,,0
200419011,,"Limpertsberg, Bois",,49.622611,6.122927,,,0,,,0
200420009,,"Merl, Marcel Cahen",,49.6018,6.101243,,,0,,,0
200419012,,"Limpertsberg, Centre Universitaire",,49.622033,6.112035,,,0,,,0
200419010,,"Limpertsberg, Belle-Vue",,49.62288,6.127591,,,0,,,0
120903019,,"Wiltz, Bastnacherstrooss",,49.959239,5.932996,,,0,,,0
120903018,,"Wiltz, Gare",,49.966478,5.928476,,,0,,,0
120903017,,"Wiltz, Fatima",,49.972154,5.919313,,,0,,,0
120903016,,"Wiltz, Ideal",,49.964819,5.916504,,,0,,,0
120903015,,"Wiltz, om Äisknippchen",,49.971429,5.939473,,,0,,,0
120903014,,"Wiltz, Kapellestrooss",,49.969048,5.93756,,,0,,,0
120903013,,"Wiltz, op Baessent",,49.973349,5.926351,,,0,,,0
120903012,,"Wiltz, Brauereistrooss",,49.970817,5.931645,,,0,,,0
120903011,,"Wiltz, Clinique",,49.96508,5.934451,,,0,,,0
120903010,,"Wiltz, Follmillen",,49.962201,5.915458,,,0,,,0
210201002,,"Burmerange, Résidence Stoffels",,49.484677,6.3241,,,0,,,0
210201003,,"Burmerange, Um Schotz",,49.487622,6.319976,,,0,,,0
180510001,,"Imbringen, Am Duerf",,49.701222,6.193642,,,0,,,0
210201001,,"Burmerange, Bei der Kiirch",,49.48618,6.322182,,,0,,,0
200101008,,"Bertrange, Gemeng",,49.610355,6.050327,,,0,,,0
180601003,,"Berbourg, Berbourg",,49.728517,6.392576,,,0,,,0
180601002,,"Berbourg, Kiirch",,49.731257,6.394414,,,0,,,0
180601001,,"Berbourg, Schoulstrooss",,49.734539,6.393544,,,0,,,0
180509003,,"Graulinster, Op der Strooss",,49.735524,6.286852,,,0,,,0
200101002,,"Bertrange, Belle Etoile",,49.621829,6.048678,,,0,,,0
200101003,,"Bertrange, Bruch",,49.605193,6.049005,,,0,,,0
180509001,,"Graulinster, Am Duerf",,49.740692,6.287397,,,0,,,0
180509002,,"Graulinster, Haaptstrooss",,49.738824,6.287917,,,0,,,0
200101006,,"Bertrange, Fleuri",,49.60516,6.076029,,,0,,,0
200101007,,"Bertrange-Strassen, Gare",,49.613096,6.059729,,,0,,,0
200101004,,"Bertrange, Dicks",,49.604791,6.052283,,,0,,,0
200101005,,"Bertrange, Domaine Schwall",,49.616083,6.046339,,,0,,,0
150105002,,"Lévelange, Kalek",,49.731745,5.870475,,,0,,,0
160206001,,Openthalt,,49.751058,6.035436,,,0,,,0
150105001,,"Lévelange, Ellerstrooss",,49.743105,5.852126,,,0,,,0
200501001,,Aéroport Luxembourg/Findel,,49.6348,6.215526,,,0,,,0
200101019,,"Bertrange, Waassertuerm",,49.621011,6.048021,,,0,,,0
200501003,,"Findel, Cargo Center",,49.638241,6.232201,,,0,,,0
200101013,,"Bertrange, Parc du Troisième Age",,49.616871,6.044782,,,0,,,0
200101014,,"Bertrange, Richterwee",,49.607332,6.070126,,,0,,,0
200101011,,"Bertrange, Millewee",,49.617856,6.048101,,,0,,,0
200101012,,"Bertrange, Montereale",,49.609598,6.064425,,,0,,,0
200101017,,"Bertrange, Rue de Mamer",,49.61579,6.0486,,,0,,,0
200101018,,"Bertrange, Rue des Champs",,49.610429,6.043691,,,0,,,0
200101015,,"Bertrange, Rue de Dippach",,49.603237,6.051657,,,0,,,0
150805001,,"Everlange, rue du Pont",,49.774516,5.953127,,,0,,,0
200101016,,"Bertrange, Rue de la Pétrusse",,49.609148,6.047783,,,0,,,0
200101010,,"Bertrange, Kierfecht",,49.61193,6.058456,,,0,,,0
200501004,,"Luxembourg, Findel",,49.629212,6.204681,,,0,,,0
121004001,,"Grümmelscheid, Hoboesch",,49.985592,5.873498,,,0,,,0
200101022,,"Bertrange, Pesch",,49.617757,6.053411,,,0,,,0
150301001,,"Colpach-Bas, Schlass",,49.757764,5.826235,,,0,,,0
210603001,,"Wintrange, Dorefplaz",,49.501355,6.35177,,,0,,,0
200101020,,"Bertrange, Wénkel",,49.611925,6.048723,,,0,,,0
200101021,,"Bertrange, Ecole Européenne II",,49.620303,6.036155,,,0,,,0
120709001,,Watrange,,49.943332,5.785567,,,0,,,0
190403003,,"Hivange, Kleng Béiwéng",,49.60363,5.926783,,,0,,,0
190403001,,"Hivange, Areler Strooss",,49.604944,5.92443,,,0,,,0
200801002,,"Steinsel, Bourgaass",,49.677569,6.121804,,,0,,,0
200801001,,Müllendorf/Mëlleref,,49.67898,6.12936,,,0,,,0
200801006,,"Steinsel, Rue des Prés",,49.673356,6.125671,,,0,,,0
200423004,,"Pfaffenthal, Um Bock",,49.611649,6.135091,,,0,,,0
200801005,,"Steinsel, Michel Rodange Plaz",,49.677056,6.124704,,,0,,,0
200423003,,"Pfaffenthal, Théiwesbur",,49.615427,6.133264,,,0,,,0
200801004,,"Steinsel, Laval",,49.669481,6.11962,,,0,,,0
200423006,,"Pfaffenthal, Beim Béinchen",,49.615814,6.131787,,,0,,,0
200801003,,"Steinsel, Gonneschhaff",,49.671647,6.120268,,,0,,,0
200423005,,"Pfaffenthal, Vauban",,49.61396,6.135413,,,0,,,0
120505001,,Merscheid/Heiderscheid,,49.870015,5.968289,,,0,,,0
140302001,,"Dirbach, Bifurcation",,49.921015,6.030815,,,0,,,0
140302002,,Dirbach,,49.920381,6.033111,,,0,,,0
200801009,,"Steinsel, Zone Industrielle",,49.670256,6.126561,,,0,,,0
200801008,,"Steinsel, Um Gruef",,49.675416,6.122402,,,0,,,0
200423002,,"Pfaffenthal, Stade G.Diderich",,49.62171,6.131565,,,0,,,0
200801007,,"Steinsel, Schoul",,49.678076,6.124464,,,0,,,0
200423001,,"Pfaffenthal, Sichenhaff",,49.620242,6.132593,,,0,,,0
400000092,,"Thionville, Foch Kiosque",,49.347353,6.140084,,,0,,,0
8227091,,Everléngermillen,,49.7773474,5.9379884,,,0,,,0
400000091,,"Thionville, Colbert",,49.364891,6.15185,,,0,,,0
200801011,,"Steinsel, Kennedy",,49.670647,6.124541,,,0,,,0
400000094,,Uckange,,49.303517,6.156685,,,0,,,0
200801010,,"Müllendorf, Op der Muschel",,49.682829,6.129646,,,0,,,0
400000093,,"Thionville, Gare",,49.353891,6.169178,,,0,,,0
8227092,,Everléngermillen,,49.7773474,5.9379884,,,0,,,0
180305001,,"Niederdonven, Beim Festsall",,49.63614,6.404745,,,0,,,0
180305002,,"Niederdonven, Beim Schmatt",,49.63561,6.409178,,,0,,,0
180305003,,"Niederdonven, Kappell",,49.634303,6.402641,,,0,,,0
180305004,,"Niederdonven, Op der Bréck",,49.638409,6.405636,,,0,,,0
400000099,,"Audun-le-Tiche, Mairie",,49.47244,5.95711,,,0,,,0
400000096,,Walibi,,49.225719,6.15985,,,0,,,0
400000095,,"Volmerange-les-Mines, Gare",,49.456918,6.079028,,,0,,,0
400000098,,"Yutz, Saint Nicolas",,49.36172,6.197668,,,0,,,0
110814001,,Niederwampach,,50.00962,5.83997,,,0,,,0
400000097,,Woippy,,49.148861,6.156322,,,0,,,0
400000081,,"Saulnes, Les Pierrettes",,49.52667,5.809529,,,0,,,0
400000080,,"Saulnes, Eglise",,49.533886,5.822288,,,0,,,0
400000083,,"Sentzich, Cimetière",,49.419472,6.258904,,,0,,,0
400000082,,"Saulnes, Salvador Allende",,49.527025,5.814565,,,0,,,0
130205001,,"Landscheid, Kiirch",,49.924005,6.128382,,,0,,,0
200411001,,"Findel, Business Center",,49.624063,6.193745,,,0,,,0
120801001,,"Insenborn, Duerf",,49.900764,5.884532,,,0,,,0
400000089,,Strasbourg,,48.585356,7.734037,,,0,,,0
400000088,,"St. Charles, Rhin",,49.511636,5.799758,,,0,,,0
400000085,,"Soetrich, Café du Soleil",,49.418939,6.155326,,,0,,,0
150702002,,"Ehner, Krier",,49.717533,5.950814,,,0,,,0
400000084,,"Sierck-les-Bains, Mairie",,49.442088,6.360098,,,0,,,0
150702001,,"Ehner, Kapell",,49.717172,5.948033,,,0,,,0
400000087,,"St. Charles, Eglise",,49.510542,5.80573,,,0,,,0
400000086,,"St. Charles, Château d'Eau",,49.509018,5.802997,,,0,,,0
400000070,,"Paris, Gare de l'Est",,48.876513,2.358932,,,0,,,0
200202001,,"Medingen, Aire de virage",,49.57372,6.253023,,,0,,,0
400000072,,Pont-a-Mousson,,48.90057,6.050829,,,0,,,0
400000071,,Petite Hettange,,49.410594,6.304858,,,0,,,0
150509001,,"Koetschette, Rond-Point",,49.838902,5.83863,,,0,,,0
160804001,,"Helmdange, Fautelfiels",,49.694137,6.140892,,,0,,,0
400000078,,"Saulnes, Allée des Roses",,49.524903,5.805484,,,0,,,0
400000077,,Roussy-le-Village,,49.45713,6.173334,,,0,,,0
400000079,,"Saulnes, Auguste Rase",,49.528776,5.815432,,,0,,,0
400000074,,"Rédange, Mairie",,49.493953,5.919118,,,0,,,0
400000073,,"Rédange, Douane",,49.49958,5.91893,,,0,,,0
400000076,,Remiremont,,48.016293,6.598785,,,0,,,0
400000075,,"Rédange, rue de Belvaux",,49.497478,5.917736,,,0,,,0
200202002,,Medingen,,49.575196,6.248859,,,0,,,0
160902003,,"Berschbach, Lohr",,49.749373,6.113291,,,0,,,0
120501002,,"Eschdorf, Mairie",,49.884559,5.93637,,,0,,,0
160902002,,"Berschbach, Fielserstrooss",,49.748275,6.11326,,,0,,,0
120501001,,"Eschdorf, Braas",,49.882979,5.938892,,,0,,,0
160902001,,"Berschbach, Blannenheem",,49.744586,6.112909,,,0,,,0
400000061,,"Mt.St.Martin, Hôpital",,49.534257,5.780406,,,0,,,0
201005001,,Stafelter,,49.658708,6.174193,,,0,,,0
400000060,,"Mt.St.Martin, Foch",,49.540272,5.757406,,,0,,,0
190103001,,"Linger, Schoul",,49.565329,5.886379,,,0,,,0
120604002,,"Merkholtz, Dellewee",,49.96208,5.979882,,,0,,,0
190103003,,"Linger, Velo's Piste",,49.562844,5.880617,,,0,,,0
120604001,,"Merkholtz, Gare",,49.956871,5.981951,,,0,,,0
120501003,,"Eschdorf, Quatre Vents",,49.881349,5.941891,,,0,,,0
400000067,,"Ottange, Transformateur",,49.448743,6.024842,,,0,,,0
400000066,,"Ottange, Pl. de Montcontour",,49.442093,6.020623,,,0,,,0
400000068,,Pagny-sur-Moselle,,48.985218,6.024958,,,0,,,0
400000063,,"Mt.St.Martin, Résistance",,49.532821,5.757346,,,0,,,0
400000062,,"Mt.St.Martin, Nancy",,49.540473,5.784891,,,0,,,0
400000065,,"Rumelange, Cité St. Paul",,49.453108,6.026661,,,0,,,0
400000064,,Nice-Ville,,43.70451,7.261954,,,0,,,0
400000050,,"Mexy, Ecole",,49.501157,5.779776,,,0,,,0
151004001,,Heispelt,,49.85492,5.881918,,,0,,,0
110303001,,"Heinerscheid, Bei Dikches",,50.091836,6.084461,,,0,,,0
110303003,,"Heinerscheid, Geméin",,50.094661,6.086625,,,0,,,0
110303002,,"Heinerscheid, Bei Millisch",,50.098989,6.086292,,,0,,,0
180301001,,"Beyren, An der Fuert",,49.633163,6.333531,,,0,,,0
180301002,,"Beyren, Op der Bréck",,49.629947,6.335687,,,0,,,0
200705003,,"Schuttrange, Kanecherstrooss",,49.619632,6.270269,,,0,,,0
200705004,,"Schuttrange, Kiercheplaz",,49.623805,6.267904,,,0,,,0
200705005,,"Schuttrange, Kreizung",,49.621074,6.266187,,,0,,,0
200705006,,"Schuttrange, Museksbau",,49.62461,6.268122,,,0,,,0
400000059,,"Mt.St.Martin, Eglantines",,49.530723,5.774335,,,0,,,0
200705007,,"Schuttrange, Um Grousbuer",,49.618034,6.262411,,,0,,,0
220401001,,"Belval-Université, Gare",,49.49942,5.946484,,,0,,,0
110401002,,"Dorscheid, Am Poul",,50.036477,6.079186,,,0,,,0
400000056,,"Mt.St.Martin, Cité Jardins",,49.536837,5.767117,,,0,,,0
110818001,,Schimpach,,50.010726,5.847199,,,0,,,0
110401001,,"Dorscheid, Am Duerf",,50.035526,6.071799,,,0,,,0
400000055,,"Mt.St.Martin, Bleuets",,49.545133,5.785221,,,0,,,0
110401004,,"Dorscheid, Leemkaul",,50.040874,6.079115,,,0,,,0
400000058,,"Mt.St.Martin, Douane",,49.52919,5.782273,,,0,,,0
400000057,,"Mt.St.Martin, Cité Latarse",,49.540483,5.773319,,,0,,,0
400000052,,"Mexy, Lorraine",,49.499282,5.783505,,,0,,,0
400000051,,"Mexy, La Forchette",,49.496629,5.783872,,,0,,,0
400000054,,"Mt.St.Martin, Auchan PED",,49.544537,5.798092,,,0,,,0
400000053,,"Mondorff, République",,49.504103,6.272245,,,0,,,0
200705001,,"Schuttrange, Al-Schëtter Mëtt",,49.621827,6.273318,,,0,,,0
120805001,,"Bonnal, Um Bommel",,49.902756,5.885658,,,0,,,0
180804001,,"Wormeldange, Erdkaul",,49.612148,6.406782,,,0,,,0
180804002,,"Wormeldange, Geméen",,49.608803,6.403637,,,0,,,0
170503001,,Specksmillen,,49.802275,6.396968,,,0,,,0
400000049,,"Mexy, Condé",,49.501177,5.783712,,,0,,,0
400000045,,"Manom, Grange Scholtès",,49.368958,6.187861,,,0,,,0
170201003,,"Altrier, Kreizenhéicht",,49.748748,6.320823,,,0,,,0
400000044,,Maizieres-les-Metz,,49.215162,6.158258,,,0,,,0
170201004,,"Altrier, Op der Schanz",,49.750287,6.328236,,,0,,,0
400000047,,Metz-Ville,,49.109393,6.177657,,,0,,,0
170201001,,"Altrier, Bildchen",,49.752296,6.327973,,,0,,,0
400000046,,Metz-Nord,,49.136962,6.168179,,,0,,,0
170201002,,"Altrier, Heeschbregerwee",,49.751864,6.328344,,,0,,,0
400000041,,"Longwy, St. Louis",,49.517359,5.750147,,,0,,,0
400000040,,"Longwy, rue de Metz",,49.51183,5.747737,,,0,,,0
400000043,,"Longwy, Tivoli",,49.529588,5.767222,,,0,,,0
400000042,,"Longwy, Stade",,49.526645,5.764929,,,0,,,0
150601001,,Eltz,,49.777509,5.89345,,,0,,,0
180804006,,"Wormeldange/Haut, Hiehl",,49.611697,6.398679,,,0,,,0
180804003,,"Wormeldange, Gewân",,49.605798,6.401596,,,0,,,0
180804004,,"Wormeldange, Kellerei",,49.614164,6.410828,,,0,,,0
110703001,,Breidfeld,,50.123198,6.062434,,,0,,,0
400000038,,"Longwy, Récollets",,49.52152,5.752525,,,0,,,0
400000037,,"Longwy, Place Darche",,49.524442,5.763678,,,0,,,0
180804007,,"Wormeldange/Haut, Körch",,49.609507,6.400138,,,0,,,0
400000039,,"Longwy, République",,49.520812,5.767083,,,0,,,0
400000034,,"Longwy, Lebrun Bessemer",,49.532604,5.764369,,,0,,,0
140204001,,"Moestroff, An der Gae",,49.862885,6.243566,,,0,,,0
400000033,,"Longwy, Lafontaine",,49.499327,5.754562,,,0,,,0
140204002,,"Moestroff, Bréck",,49.86868,6.239854,,,0,,,0
400000036,,"Longwy, Merlin",,49.507132,5.755026,,,0,,,0
140204003,,"Moestroff, Wangerten",,49.871721,6.238372,,,0,,,0
400000035,,"Longwy, Gare",,49.513375,5.769784,,,0,,,0
400000030,,"Longwy, Bas/Espace Bus",,49.509076,5.750241,,,0,,,0
160701002,,"Gosseldange, rte. de Schoenfels",,49.728101,6.11454,,,0,,,0
160701001,,"Gosseldange, Kapell",,49.719862,6.118595,,,0,,,0
160701004,,"Gosseldange, Uelzechtbréck",,49.719862,6.118595,,,0,,,0
400000032,,"Longwy, Home City",,49.517618,5.759983,,,0,,,0
400000031,,"Longwy, Espace Saintignon",,49.529358,5.755806,,,0,,,0
160701003,,"Gosseldange, Vor Bell",,49.721938,6.116321,,,0,,,0
161106002,,"Tuntange, Kiirch",,49.717693,6.00897,,,0,,,0
110502010,,"Marnach, Schwaarzenhiwwel",,50.047477,6.073768,,,0,,,0
161003003,,"Nommern, Weierwiss",,49.793726,6.167992,,,0,,,0
161106001,,"Tuntange, Duerf",,49.716773,6.009595,,,0,,,0
161003001,,"Nommern, Griechten",,49.797733,6.175528,,,0,,,0
161003002,,"Nommern, Kiirch",,49.79453,6.173657,,,0,,,0
120302001,,"Eschweiler/Wiltz, Gaass",,49.995942,5.947602,,,0,,,0
161106004,,"Tuntange, Sëllerstrooss",,49.71975,6.004347,,,0,,,0
161106003,,"Tuntange, Knupp",,49.716456,6.016136,,,0,,,0
120302002,,"Eschweiler/Wiltz, Halt",,49.985831,5.959279,,,0,,,0
161106005,,"Tuntange, Weisserchen",,49.713202,6.012756,,,0,,,0
120302003,,"Eschweiler/Wiltz, Hielert",,49.998454,5.948015,,,0,,,0
130104001,,"Nachtmanderscheid, Klossen",,49.948187,6.129522,,,0,,,0
130104002,,"Nachtmanderscheid, Poul",,49.94731,6.13879,,,0,,,0
180207004,,"Wecker, Gare",,49.699619,6.386884,,,0,,,0
150505001,,Flatzbour,,49.835337,5.78723,,,0,,,0
400000027,,"Longlaville, Maison du Peuple",,49.534196,5.797648,,,0,,,0
180207002,,"Wecker, Coboulux",,49.694438,6.384527,,,0,,,0
200508010,,"Senningerberg, Rue des Résidences",,49.649826,6.234772,,,0,,,0
400000026,,"Longlaville, Mairie",,49.532778,5.797451,,,0,,,0
180207003,,"Wecker, Eglise",,49.696271,6.387577,,,0,,,0
200508011,,"Senningerberg, Rue du Golf",,49.645058,6.221258,,,0,,,0
400000029,,"Longwy, 11 Novembre 1918",,49.52082,5.763834,,,0,,,0
200508012,,"Senningerberg, Lou Hemmer",,49.632986,6.210435,,,0,,,0
400000028,,"Longlaville, Rue des Fleurs",,49.537137,5.806387,,,0,,,0
180207001,,"Wecker, An der Schmëtt",,49.702942,6.394612,,,0,,,0
200508013,,"Senningerberg, rue du Bois",,49.646014,6.228103,,,0,,,0
400000022,,"Hettange-Grande, P&R Match",,49.417663,6.138273,,,0,,,0
400000025,,"Longlaville, Elsa Triolet",,49.535044,5.80033,,,0,,,0
400000024,,"Hettange-Grande, Gare SNCF",,49.407573,6.157018,,,0,,,0
400000021,,"Herserange, St. Eloi",,49.512772,5.756905,,,0,,,0
400000020,,"Herserange, Quatre Vents",,49.522785,5.797869,,,0,,,0
150903001,,"Vichten, Wiltgeshaff",,49.812539,6.004319,,,0,,,0
180104001,,"Mensdorf, Ennen am Duerf",,49.654573,6.302097,,,0,,,0
180104002,,"Mensdorf, Uewen am Duerf",,49.653536,6.305827,,,0,,,0
180104003,,"Mensdorf, Rue de Roodt-Syre",,49.65855,6.303249,,,0,,,0
210901001,,Ersange/Ierséng,,49.576224,6.275585,,,0,,,0
141101002,,"Mertzig, Butzebierg",,49.826912,6.011872,,,0,,,0
141101003,,"Mertzig, Eglise",,49.831942,6.002841,,,0,,,0
141101004,,"Mertzig, Internat",,49.834881,6.00935,,,0,,,0
400000019,,"Herserange, Mairie",,49.513669,5.769986,,,0,,,0
141101005,,"Mertzig, Gemeng",,49.833156,6.005604,,,0,,,0
141101006,,"Mertzig, Wéchen",,49.829916,5.997932,,,0,,,0
8226602,,Leudelange-LaLux,,49.5630721,6.0661941,,,0,,,0
400000016,,"Herserange, Concorde",,49.521798,5.790844,,,0,,,0
400000015,,Hayange-Esplanade,,49.339752,6.03627,,,0,,,0
400000018,,"Herserange, Landrivaux",,49.524656,5.790726,,,0,,,0
200508001,,"Senningerberg, Autobunn",,49.639222,6.216492,,,0,,,0
400000017,,"Herserange, La Folie",,49.518843,5.783893,,,0,,,0
170606001,,"Mompach, Ieweschtstrooss",,49.751951,6.465878,,,0,,,0
200508002,,"Senningerberg, Breedewues",,49.655131,6.224508,,,0,,,0
400000012,,"Hagondange, Gare",,49.253616,6.164173,,,0,,,0
160202002,,"Brouch/Mersch, Kloeppel",,49.738939,6.030859,,,0,,,0
200508003,,"Senningerberg, Charlys Statioun",,49.650041,6.226087,,,0,,,0
400000011,,"Garche, rte de Mondorf",,49.400685,6.208463,,,0,,,0
160202001,,"Brouch/Mersch, Kiirch",,49.735224,6.020384,,,0,,,0
200508004,,"Senningerberg, Gromscheed",,49.651634,6.23097,,,0,,,0
400000014,,"Elange-Veymerange, Stade",,49.358976,6.111132,,,0,,,0
200508005,,"Senningerberg, Héienhaff",,49.6364,6.216584,,,0,,,0
400000013,,Hayange,,49.330565,6.072916,,,0,,,0
160202003,,"Brouch/Mersch, Kneppchen",,49.741973,6.016944,,,0,,,0
200508006,,"Senningerberg, Kapell",,49.650117,6.226609,,,0,,,0
200508007,,"Senningerberg, Laangschib",,49.644467,6.220973,,,0,,,0
200508008,,"Senningerberg, Mënsterbësch",,49.645583,6.224761,,,0,,,0
8225751,,Piennes-Zone d'activités,,49.4864752,6.0142118,,,0,,,0
400000010,,"Garche, Croisement",,49.395486,6.195856,,,0,,,0
200508009,,"Senningerberg, Rue des Pins",,49.64819,6.23783,,,0,,,0
140602002,,"Erpeldange/Ettelbruck, Beim Dreieck",,49.852283,6.1148,,,0,,,0
140602001,,"Erpeldange/Ettelbruck, An der Gewan",,49.85856,6.112533,,,0,,,0
140602006,,"Erpeldange/Ettelbruck, Laduno",,49.852546,6.118165,,,0,,,0
200403017,,"Belair, Service Incendie",,49.614244,6.113534,,,0,,,0
140602005,,"Erpeldange/Ettelbruck, Kiirch",,49.861996,6.112899,,,0,,,0
200403016,,"Belair, Rue de l'Ouest",,49.614977,6.09574,,,0,,,0
140602004,,"Erpeldange/Ettelbruck, Hôtel",,49.865867,6.113364,,,0,,,0
200403019,,"Belair, Val Ste Croix",,49.612351,6.097585,,,0,,,0
140602003,,Cité Schildermanns,,49.977663,5.94389,,,0,,,0
200403018,,"Belair, Stade",,49.614967,6.108603,,,0,,,0
140602008,,"Erpeldange/Ettelbruck, Um Dreieck",,49.850754,6.115169,,,0,,,0
140602007,,"Erpeldange/Ettelbruck, Beim Schlass",,49.859441,6.112509,,,0,,,0
400000009,,Evrange,,49.50158,6.195029,,,0,,,0
400000008,,"Elange, Cinéma",,49.362552,6.111281,,,0,,,0
200403011,,"Belair, Nassau",,49.60604,6.119694,,,0,,,0
200403010,,"Belair, Kierch",,49.610437,6.107722,,,0,,,0
200403013,,"Belair, Place de France",,49.60648,6.106711,,,0,,,0
400000005,,"Basse-Rentgen, Croisement",,49.484398,6.191744,,,0,,,0
200403012,,"Belair, Oradour",,49.609496,6.104608,,,0,,,0
400000004,,Basse-Ham,,49.385884,6.243245,,,0,,,0
200403015,,"Belair, Rheinsheim",,49.607503,6.120646,,,0,,,0
400000007,,"Cattenom, CD",,49.406262,6.243662,,,0,,,0
200403014,,"Belair, Place de Liège",,49.608594,6.107776,,,0,,,0
400000006,,"Beyren-les-Sierck, Eglise",,49.469851,6.287456,,,0,,,0
400000001,,"Apach, Eglise",,49.460445,6.374128,,,0,,,0
400000003,,"Avignon, Centre",,43.92143,4.785838,,,0,,,0
400000002,,"Audun-le-Tiche, Gare",,49.47883,5.958909,,,0,,,0
140310002,,"Welscheid, Jongerts",,49.88727,6.065762,,,0,,,0
140310001,,"Welscheid, Bei der Bréck",,49.88677,6.059902,,,0,,,0
200403006,,"Belair, Crécy",,49.608836,6.116733,,,0,,,0
110806001,,Deiffelt,,50.0649,5.963097,,,0,,,0
200403005,,"Belair, Sacré-Coeur",,49.610277,6.1132,,,0,,,0
200403008,,"Belair, Guillaume",,49.606655,6.118398,,,0,,,0
200403007,,"Belair, Franciscaines",,49.608283,6.112972,,,0,,,0
200403009,,"Belair, Kannerklinik / Maternité",,49.61791,6.097532,,,0,,,0
110806002,,"Deiffelt, Carrefour",,50.064964,5.963121,,,0,,,0
200403002,,"Belair, Archiducs",,49.612647,6.112257,,,0,,,0
200403001,,"Belair, Amsterdam",,49.612213,6.108226,,,0,,,0
200403004,,"Belair, Bragance",,49.607298,6.114955,,,0,,,0
200403003,,"Belair, Aubépines",,49.615725,6.098298,,,0,,,0
110203001,,Ennert Schinker,,49.988665,6.08821,,,0,,,0
110203002,,"Schinker, Um Rank",,49.991527,6.087535,,,0,,,0
110203003,,Um Schinker,,49.992163,6.088515,,,0,,,0
110604001,,Hautbellain,,50.155651,5.977132,,,0,,,0
220903002,,"Rodange, Cité à la Wissi",,49.547013,5.827866,,,0,,,0
220903003,,"Rodange, Croix St. Pierre",,49.543386,5.828488,,,0,,,0
140309002,,"Schlindermanderscheid, Kiirch",,49.932773,6.062217,,,0,,,0
210802001,,Hëttermillen,,49.588124,6.372701,,,0,,,0
140309001,,"Schlindermand., Bei Zäichens",,49.930985,6.060542,,,0,,,0
220903008,,"Rodange, Gare",,49.55104,5.843839,,,0,,,0
1720010,,Heinrich Heine,,49.605445,6.130859,,,0,,,0
220903009,,"Rodange, Gendarmerie",,49.550189,5.838377,,,0,,,0
220903004,,"Rodange, Fonderie",,49.545708,5.824563,,,0,,,0
220903005,,"Rodange, Fontaine d'Olière",,49.542405,5.822579,,,0,,,0
220903006,,"Rodange, Frontière",,49.541213,5.815218,,,0,,,0
220903007,,"Rodange, Gaardestrooss",,49.545028,5.838171,,,0,,,0
110409005,,"Wahlhausen, Burebierg",,49.982628,6.11772,,,0,,,0
110706014,,"Wemperhaart, Beim Massen",,50.149017,6.057505,,,0,,,0
110409006,,"Wahlhausen, Kiirch",,49.982368,6.123888,,,0,,,0
110706012,,"Weiswampach, Grait",,50.137834,6.078109,,,0,,,0
110706013,,"Wemperhaart, 3 Braken",,50.15659,6.050333,,,0,,,0
180206001,,Hagelsdorf,,49.692376,6.364599,,,0,,,0
130208001,,Valeriushaff,,49.884353,6.185342,,,0,,,0
110706010,,"Wemperhaart, Op der Haart",,50.15083,6.054132,,,0,,,0
110706011,,Wemperhaart,,50.155317,6.052288,,,0,,,0
130208003,,Houschterhaff,,49.940422,6.152789,,,0,,,0
130208002,,"Walsdorf, An der Gaass",,49.925768,6.173008,,,0,,,0
110409001,,"Wahlhausen, Akescht",,49.977643,6.122384,,,0,,,0
110409002,,"Wahlhausen, Am Duerf",,49.984665,6.125481,,,0,,,0
160602002,,"Ernzen, Manzebach",,49.777019,6.219159,,,0,,,0
220903012,,"Rodange, Kierch 2",,49.545983,5.839865,,,0,,,0
160602001,,"Ernzen, Kapell",,49.772353,6.221162,,,0,,,0
220903013,,"Rodange, Klopp",,49.549414,5.835025,,,0,,,0
220903010,,"Rodange, Kierch",,49.545983,5.839865,,,0,,,0
220903015,,"Rodange, Niederredingen 1",,49.541609,5.843411,,,0,,,0
220903017,,"Rodange, rue Philippart",,49.543384,5.841208,,,0,,,0
220903018,,"Rodange, Raths",,49.551514,5.848013,,,0,,,0
110706003,,"Weiswampach, Hugeriit",,50.142872,6.072049,,,0,,,0
110706004,,"Weiswampach, Kiämmel",,50.139826,6.079317,,,0,,,0
110706001,,"Weiswampach, Am Leempull",,50.141978,6.075813,,,0,,,0
110706002,,"Weiswampach, Beelerstrooss",,50.141769,6.077533,,,0,,,0
180102002,,"Berg, Haff Biel",,49.679255,6.351001,,,0,,,0
180102001,,"Berg, Bei der Schmett",,49.681407,6.357387,,,0,,,0
110811002,,"Hoffelt, Kiirch",,50.098956,5.921321,,,0,,,0
110706007,,"Weiswampach, Post",,50.13836,6.075768,,,0,,,0
200426011,,"Weimerskirch, Tommys Bruch",,49.631587,6.138063,,,0,,,0
110706008,,"Weiswampach, Iäwwischt Duarref",,50.13967,6.078851,,,0,,,0
200426010,,"Weimerskirch, St.Vith",,49.626342,6.139173,,,0,,,0
110706005,,"Weiswampach, Ennischt Duarref",,50.135008,6.075174,,,0,,,0
110811001,,"Hoffelt, Driicht",,50.097704,5.916535,,,0,,,0
110706006,,"Weiswampach, Duarrefstrooss 86",,50.133413,6.078295,,,0,,,0
220903022,,"Rodange, Siole",,49.542224,5.82483,,,0,,,0
220903024,,"Rodange, Vullesang",,49.54623,5.845256,,,0,,,0
220903025,,"Rodange, Waeschbur",,49.544482,5.832358,,,0,,,0
220903020,,"Rodange, Schlackenmillen Wissi",,49.548618,5.831924,,,0,,,0
140504004,,Folkendange,,49.842177,6.201955,,,0,,,0
220903021,,"Rodange, Schwemm",,49.540131,5.844639,,,0,,,0
140504003,,Reisermillen,,49.841353,6.224927,,,0,,,0
140504002,,Neimillen,,49.838449,6.224968,,,0,,,0
161103002,,"Hollenfels, Vereinsbau",,49.715533,6.051365,,,0,,,0
140504001,,Keiwelbaach,,49.849581,6.233054,,,0,,,0
161103001,,"Hollenfels, Schoul",,49.712872,6.04828,,,0,,,0
220903026,,"Rodange, Rue Joseph Moscardo",,49.546732,5.836982,,,0,,,0
190502003,,"Hobscheid, Schoul",,49.687809,5.913514,,,0,,,0
190502004,,"Hobscheid, Steekaul",,49.693541,5.917936,,,0,,,0
190502005,,"Hobscheid, Viirstad",,49.680007,5.920179,,,0,,,0
190502001,,"Hobscheid, Ehnerpad",,49.696075,5.918816,,,0,,,0
190502002,,"Hobscheid, Hiehl",,49.684963,5.91608,,,0,,,0
150202001,,"Platen, Kinnebësch",,49.790596,5.936914,,,0,,,0
220502001,,"Frisange, Aal Gemeng",,49.516653,6.187769,,,0,,,0
150202002,,Platen,,49.786887,5.936148,,,0,,,0
220502002,,"Frisange, Ennescht Duerf",,49.516662,6.198145,,,0,,,0
220502003,,"Frisange, Hau",,49.522468,6.18532,,,0,,,0
220502004,,"Frisange, Op der Kräizong",,49.51588,6.188559,,,0,,,0
220502005,,"Frisange, Park & Ride",,49.506778,6.193847,,,0,,,0
220502006,,"Frisange, Cité Aaluecht",,49.512193,6.188964,,,0,,,0
170302003,,"Bollendorf, Pont",,49.850198,6.358902,,,0,,,0
210503006,,"Mondorf, Réimecherstrooss",,49.508113,6.283986,,,0,,,0
210503005,,"Mondorf, Kleng Gare",,49.504183,6.266135,,,0,,,0
210503004,,"Mondorf, Daundorf",,49.507286,6.285165,,,0,,,0
210503003,,"Mondorf, Christophorus",,49.504648,6.274384,,,0,,,0
210503002,,"Mondorf, Casino 2000",,49.506303,6.281641,,,0,,,0
210503001,,"Mondorf, Bei der Douane",,49.504565,6.27012,,,0,,,0
210904002,,"Waldbredimus, Kiirch",,49.556499,6.287207,,,0,,,0
210904001,,"Waldbredimus, Hanner Lautesch",,49.557299,6.293344,,,0,,,0
190903015,,"Mamer, Lycee (gare routière)",,49.622237,6.035789,,,0,,,0
170302001,,"Bollendorf, Gare",,49.849566,6.354067,,,0,,,0
170302002,,"Bollendorf, Hamicht",,49.846894,6.367902,,,0,,,0
140402001,,Fridhaff,,49.892194,6.13456,,,0,,,0
170207001,,Kobenbour,,49.754953,6.306374,,,0,,,0
220201040,,"Differdange, Rattem",,49.51469,5.900583,,,0,,,0
220201041,,"Differdange, Roudenhaff",,49.529952,5.845834,,,0,,,0
220201044,,"Differdange, Rue de Hussigny",,49.517666,5.880123,,,0,,,0
210503009,,"Mondorf, Vor Howent",,49.50893,6.27894,,,0,,,0
220201043,,"Differdange, Rue Bessemer",,49.520156,5.912564,,,0,,,0
210503008,,"Mondorf, Brill",,49.504662,6.276869,,,0,,,0
220201046,,"Differdange, Rue de l'Eau",,49.514795,5.897481,,,0,,,0
210503007,,"Mondorf, Stade John Grün",,49.509933,6.287201,,,0,,,0
220201045,,"Differdange, R. de la Montagne",,49.520548,5.882897,,,0,,,0
191103002,,"Kleinbettingen, Gare",,49.644061,5.915965,,,0,,,0
150603001,,"Nagem, Faubourg",,49.79031,5.858737,,,0,,,0
220201059,,"Niederkorn, Im Mai",,49.533015,5.891143,,,0,,,0
191103001,,"Kleinbettingen, Duerf",,49.645296,5.915734,,,0,,,0
150603002,,"Nagem, Centre Culturel",,49.789234,5.857876,,,0,,,0
220201058,,"Differdange, Werding",,49.513074,5.888678,,,0,,,0
190903009,,"Mamer, Holzemerstrooss",,49.62479,6.015428,,,0,,,0
150603003,,"Nagem, Pompstatioun",,49.786272,5.854816,,,0,,,0
190903008,,"Mamer, Gare",,49.625668,6.020166,,,0,,,0
110307001,,Lausdorn,,50.118254,6.082926,,,0,,,0
190903007,,"Mamer, Gaaschtbierg",,49.627132,6.032334,,,0,,,0
190903006,,"Mamer, Eisebunnsbréck",,49.627442,6.018825,,,0,,,0
190903005,,"Mamer, Eglantiers",,49.63408,6.016674,,,0,,,0
210503011,,"Mondorf, Rue J. Dolibois",,49.512623,6.281429,,,0,,,0
190903004,,"Mamer, Coq Hardi",,49.623263,6.011353,,,0,,,0
210503010,,"Mondorf, Av. Gr.D. Charlotte",,49.509575,6.282675,,,0,,,0
191103003,,"Kleinbettingen, Kiirfecht",,49.647936,5.922953,,,0,,,0
190606002,,"Olm, Kräizwee",,49.651095,5.994877,,,0,,,0
190606003,,"Olm, Kréimerech",,49.655217,5.998046,,,0,,,0
190606001,,"Olm, Dréischelsfeld",,49.647221,5.998136,,,0,,,0
190903014,,"Mamer, Zentrum",,49.629182,6.021073,,,0,,,0
190903013,,"Mamer, Tossebierg",,49.624399,6.036613,,,0,,,0
190903012,,"Mamer, Mambra",,49.631466,6.022084,,,0,,,0
220201053,,"Differdange, Schoul",,49.522833,5.891237,,,0,,,0
190903011,,"Mamer, Lycée (gare ferroviaire)",,49.618403,6.029763,,,0,,,0
220201052,,"Differdange, Rue Woiwer",,49.518622,5.905655,,,0,,,0
220201054,,"Differdange, Seelebunn",,49.519488,5.896673,,,0,,,0
220201057,,"Differdange, Wagner Koepges",,49.532629,5.891527,,,0,,,0
220201056,,"Differdange, Terminus",,49.520793,5.891339,,,0,,,0
150503001,,"Bilsdorf, Am Duerf",,49.857649,5.827359,,,0,,,0
200406008,,"Cents, Gabriel de Marie",,49.619016,6.165732,,,0,,,0
200406009,,"Cents, Halte CFL",,49.614148,6.162747,,,0,,,0
130106004,,"Stolzembourg, S.E.O.",,49.954304,6.17676,,,0,,,0
200406002,,"Cents, Arthur Knaff",,49.618368,6.160577,,,0,,,0
130106003,,"Stolzembourg, Kiirch",,49.966029,6.166925,,,0,,,0
200406003,,"Cents, Camille Polfer",,49.619265,6.176283,,,0,,,0
201102001,,"Syren, Klappsbréck",,49.562937,6.221914,,,0,,,0
180503001,,Blumenthal/Blummendall,,49.74389,6.265784,,,0,,,0
130106002,,"Stolzembourg, Bréck",,49.963138,6.169745,,,0,,,0
201102002,,"Syren, Nidderbaach",,49.565238,6.219957,,,0,,,0
130106001,,"Stolzembourg, Akescht",,49.977132,6.165533,,,0,,,0
200406001,,"Cents, Äppelwee-I.N.S.",,49.612057,6.147971,,,0,,,0
201102003,,"Syren, Troudelermillen",,49.565088,6.21482,,,0,,,0
200406006,,"Cents, Dinselpuert",,49.610738,6.140807,,,0,,,0
201102004,,"Syren, Rue de Hassel",,49.561206,6.220601,,,0,,,0
200406007,,"Cents, Fort Dumoulin",,49.612388,6.147523,,,0,,,0
200406004,,"Cents, Carmel",,49.618335,6.172459,,,0,,,0
220201060,,"Differdange, rue Emile Mark",,49.521838,5.898417,,,0,,,0
200406005,,"Cents, Charles de Tornaco",,49.619244,6.163295,,,0,,,0
190903003,,"Mamer, C.I.P.A.",,49.628554,6.025322,,,0,,,0
220201062,,"Fousbann, rue de Soleuvre",,49.520808,5.90665,,,0,,,0
190903002,,"Mamer, Baerendall",,49.63001,6.025621,,,0,,,0
220201061,,"Fousbann, LIDL",,49.521057,5.909896,,,0,,,0
190903001,,"Mamer, Arelerstrooss",,49.628599,6.02917,,,0,,,0
220201064,,"Differdange, Contournement",,49.521453,5.891449,,,0,,,0
220201063,,"Fousbann, rue de la Chapelle",,49.519814,5.899098,,,0,,,0
220201066,,"Differdange, Maartplaz",,49.522662,5.887889,,,0,,,0
220201065,,"Differdange, Avenue Charlotte",,49.518682,5.889123,,,0,,,0
221302001,,"Ehlerange, Centre",,49.523231,5.964791,,,0,,,0
221302002,,"Ehlerange, Dennebësch",,49.529161,5.950809,,,0,,,0
221302003,,"Ehlerange, Escherstrooss",,49.51783,5.96572,,,0,,,0
120603001,,"Kautenbach, Am Duerf",,49.951745,6.016752,,,0,,,0
120603002,,"Kautenbach, Gare",,49.948744,6.022152,,,0,,,0
200703001,,P.A.S.-Aalbaach,,49.644368,6.267805,,,0,,,0
28001,,"Rodange, Brouckerwee",,49.546942,5.83477,,,0,,,0
200703002,,P.A.S.-Äisvull,,49.641071,6.274113,,,0,,,0
200703003,,P.A.S.-Bekassin,,49.643317,6.274001,,,0,,,0
200703004,,P.A.S.-Bombicht,,49.643831,6.26451,,,0,,,0
200703005,,P.A.S.-Stackint,,49.639139,6.270397,,,0,,,0
170103002,,Vugelsmillen,,49.824861,6.325783,,,0,,,0
221302008,,"Ehlerange, Schoul",,49.523599,5.966454,,,0,,,0
170703003,,"Hinkel, Schiltzhaus",,49.786107,6.508529,,,0,,,0
221302009,,"Ehlerange, ZARE ouest",,49.514493,5.966756,,,0,,,0
170703002,,Hinkel,,49.783932,6.514059,,,0,,,0
170103001,,Cloosbierg,,49.843945,6.319332,,,0,,,0
170703001,,"Hinkel, Haaptstrooss",,49.782732,6.514732,,,0,,,0
221302005,,"Ehlerange, Keupewee",,49.526177,5.961513,,,0,,,0
221302006,,"Ehlerange, Monnerecherstrooss",,49.525737,5.974933,,,0,,,0
221302007,,"Ehlerange, Rousebësch",,49.526873,5.954794,,,0,,,0
8700551,,Benfeld(Selestat),,48.3419132,7.6022183,,,0,,,0
221005001,,"Roedgen, Laangwis",,49.573411,6.032911,,,0,,,0
200504010,,"Niederanven, Jacques Lamort",,49.647763,6.259593,,,0,,,0
121007001,,Schleef,,49.989667,5.856196,,,0,,,0
220602005,,"Tétange, Lorei",,49.468857,6.038049,,,0,,,0
200304002,,"Howald, Bei der Kierch",,49.583561,6.142328,,,0,,,0
220602004,,"Tétange, Kierfecht",,49.479567,6.043119,,,0,,,0
200304001,,"Howald, Am Houwaldsbierg",,49.58187,6.148542,,,0,,,0
220602007,,"Tétange, Schungfabrik",,49.477019,6.035692,,,0,,,0
200304004,,"Howald, Jhangeli",,49.586052,6.143746,,,0,,,0
190303010,,"Schouweiler,Kierfecht",,49.583009,5.956377,,,0,,,0
220602006,,"Tétange, Rue Neuve",,49.47903,6.042889,,,0,,,0
200304003,,"Howald, C.I.P.A.",,49.589178,6.147922,,,0,,,0
220602001,,"Tétange, Duerf",,49.47444,6.040377,,,0,,,0
220602002,,"Tétange, Gare",,49.477514,6.034986,,,0,,,0
200406022,,"Luxembourg, Ecole Ste Sophie",,49.619198,6.151902,,,0,,,0
200406023,,"Cents, Waassertuerm Terminus",,49.620726,6.182305,,,0,,,0
200304006,,"Howald, Moureschanz",,49.583293,6.13656,,,0,,,0
220602008,,"Tétange, Um Haff",,49.471953,6.038787,,,0,,,0
200304005,,"Howald, Minsbësch",,49.580341,6.145989,,,0,,,0
200304008,,"Gasperich/Howald, P&R Howald",,49.578788,6.127595,,,0,,,0
200304007,,"Howald, Op der Stirzel",,49.576812,6.135348,,,0,,,0
200406020,,"Cents, I.N.S.",,49.612389,6.147536,,,0,,,0
200406021,,"Luxembourg, Alouettes",,49.614334,6.164093,,,0,,,0
190303008,,"Schouweiler, Binzeriech",,49.579067,5.959071,,,0,,,0
190704001,,Wandhaff,,49.646712,5.956962,,,0,,,0
200504005,,"Niederanven, Op de Wolleken",,49.655477,6.250679,,,0,,,0
190303009,,"Schouweiler, Bei der Schoul",,49.582593,5.961079,,,0,,,0
200504006,,"Niederanven, Routscheed",,49.650478,6.252318,,,0,,,0
190303006,,"Schouweiler, Schéiferwee",,49.581042,5.95102,,,0,,,0
200504003,,"Niederanven, Millen",,49.649145,6.259834,,,0,,,0
190303007,,"Schouweiler, Belair",,49.585228,5.95592,,,0,,,0
200504004,,"Niederanven, Minsbecherstrooss",,49.651216,6.256863,,,0,,,0
200504001,,"Niederanven, Geisfeld",,49.65294,6.262032,,,0,,,0
200504002,,"Niederanven, Laach",,49.651517,6.254754,,,0,,,0
150607001,,"Reichlange, Hostellerie",,49.775432,5.925174,,,0,,,0
150607002,,"Reichlange, Molkerei",,49.772376,5.925631,,,0,,,0
120506001,,Ringel,,49.915697,6.010828,,,0,,,0
200304013,,"Howald, Waassertuerm",,49.578293,6.147561,,,0,,,0
190303001,,"Schouweiler, Al Schoul",,49.582017,5.960382,,,0,,,0
200304015,,"Howald, 9 Mai 1944",,49.585258,6.138894,,,0,,,0
200406019,,"Cents, Waassertuerm",,49.620726,6.182305,,,0,,,0
200304014,,"Howald, Halte CFL",,49.580877,6.132744,,,0,,,0
190303004,,"Schouweiler, Kastill",,49.578283,5.946723,,,0,,,0
221103002,,"Crauthem, Beim Schlass",,49.534695,6.144627,,,0,,,0
190303005,,"Schouweiler, Kiirch",,49.581279,5.958338,,,0,,,0
221103001,,"Crauthem, Am Gruef",,49.537187,6.145339,,,0,,,0
190303002,,"Schouweiler, Gare",,49.573517,5.960135,,,0,,,0
200304011,,"Howald, Ronnebësch",,49.578876,6.133664,,,0,,,0
190303003,,"Schouweiler, Hiel",,49.587524,5.954269,,,0,,,0
200304010,,"Howald, Rangwee",,49.588306,6.139186,,,0,,,0
200406013,,"Cents, Nic Rollinger",,49.61159,6.151653,,,0,,,0
200406014,,"Cents, Paul Albrecht",,49.620727,6.174246,,,0,,,0
200406011,,"Cents, Kéibierg-I.N.S.",,49.611157,6.143219,,,0,,,0
200406012,,"Cents, Kierch",,49.615294,6.159939,,,0,,,0
200406017,,"Cents, Tawioun",,49.613863,6.154068,,,0,,,0
8800156,,Marbehan,,49.8002797,5.6202968,,,0,,,0
200406018,,"Cents, Trèves",,49.617625,6.169524,,,0,,,0
200406015,,"Cents, Pommiers",,49.61253,6.156209,,,0,,,0
200406016,,"Cents, Robert Bruch",,49.61714,6.165522,,,0,,,0
160403001,,Schmët,,49.751569,6.204967,,,0,,,0
200504009,,"Niederanven, rue du Bois",,49.652206,6.257279,,,0,,,0
200406010,,"Cents, Jules Salentiny",,49.616897,6.158932,,,0,,,0
200504007,,"Niederanven, rue de Mensdorf",,49.650826,6.261665,,,0,,,0
200504008,,"Niederanven, rue Goesfeld",,49.652105,6.262896,,,0,,,0
130201003,,"Bastendorf, Lann",,49.890387,6.164216,,,0,,,0
150304001,,"Petit Nobressart, Pësch",,49.778865,5.810643,,,0,,,0
130201001,,"Bastendorf, Beim Terrain",,49.891835,6.160886,,,0,,,0
130201002,,"Bastendorf, Ge'erwee",,49.886837,6.173544,,,0,,,0
8701862,,Rouffach,,47.972644,7.4488354,,,0,,,0
170801002,,"Christnach, Schoulstrooss",,49.788214,6.273056,,,0,,,0
170801001,,"Christnach, Hierheck",,49.787356,6.269464,,,0,,,0
180702001,,Pont de Langsur,,49.726523,6.495818,,,0,,,0
120404003,,"Goesdorf, Pompjeën",,49.921322,5.966588,,,0,,,0
120404002,,"Goesdorf, Maeschgaart",,49.92255,5.966079,,,0,,,0
120404001,,"Goesdorf, Gemeng",,49.920745,5.970359,,,0,,,0
200418002,,"Kockelscheuer, Kräizhaff",,49.562378,6.108089,,,0,,,0
200418001,,"Kockelscheuer, Camping",,49.57323,6.113216,,,0,,,0
200418004,,"Kockelscheuer, Plateau",,49.559453,6.108746,,,0,,,0
200418003,,"Kockelscheuer, Patinoire",,49.565367,6.108535,,,0,,,0
200418005,,"Kockelscheuer, Poudrerie",,49.555444,6.106383,,,0,,,0
8800175,,Coo,,50.3256751,5.8273738,,,0,,,0
180507001,,"Godbrange, Bei der Kiirch",,49.734377,6.232674,,,0,,,0
150802001,,"Rippweiler, Beim Nössert",,49.751132,5.955801,,,0,,,0
220103001,,"Fennange, Am Duerf",,49.518983,6.076062,,,0,,,0
220103002,,"Fennange, Rue des Champs",,49.519681,6.083041,,,0,,,0
8800177,,Poulseur,,50.52318,5.6560185,,,0,,,0
8800176,,Aywaille,,50.4594647,5.7112775,,,0,,,0
220801007,,"Bergem, Naerzengerstrooss",,49.517892,6.045533,,,0,,,0
220801008,,"Bergem, Raedelsboesch",,49.521286,6.048106,,,0,,,0
220801005,,"Bergem, Kiirchbierg",,49.523913,6.040374,,,0,,,0
220801006,,"Bergem, Mierterfeld",,49.524178,6.041588,,,0,,,0
220801003,,"Bergem, Brill",,49.522314,6.042903,,,0,,,0
220801004,,"Bergem, Centre",,49.524086,6.041483,,,0,,,0
110101013,,"Clervaux, Baastnecherstrooss",,50.064905,6.021892,,,0,,,0
220801001,,"Bergem, Adeburg",,49.527205,6.036457,,,0,,,0
220801002,,"Bergem, Blummestrooss",,49.519335,6.045695,,,0,,,0
150511005,,"Perlé, Schoul",,49.810154,5.764223,,,0,,,0
150511001,,"Perlé, An der Huel",,49.809808,5.755737,,,0,,,0
170402004,,"Consdorf, Melicksheck",,49.787667,6.34591,,,0,,,0
150104001,,Huttange (Hitten),,49.735498,5.897954,,,0,,,0
191003001,,"Roodt/Bour, Bréck",,49.694291,6.000921,,,0,,,0
150511002,,"Perlé, Gare",,49.814972,5.764401,,,0,,,0
170402005,,"Consdorf, Post",,49.778537,6.33692,,,0,,,0
150511003,,"Perlé, Héiltzerwee",,49.809405,5.768332,,,0,,,0
170402006,,"Consdorf, Schoul",,49.779809,6.337087,,,0,,,0
150511004,,"Perlé, Op der Kopp",,49.810589,5.763387,,,0,,,0
170402007,,"Consdorf, Konstrëfermillen",,49.778753,6.327962,,,0,,,0
110101011,,"Clervaux, Postes",,50.054987,6.030177,,,0,,,0
110101012,,"Clervaux, Scierie",,50.065215,6.026988,,,0,,,0
170402001,,"Consdorf, Gare",,49.773119,6.341149,,,0,,,0
170402002,,"Consdorf, Haenricht",,49.780847,6.340781,,,0,,,0
110101010,,"Clervaux, Police",,50.05417,6.025645,,,0,,,0
170402003,,"Consdorf, Kraizstrooss",,49.782363,6.346853,,,0,,,0
220801009,,"Bergem, Steinbruckerweg",,49.527584,6.036172,,,0,,,0
110101008,,"Clervaux, Pl. de la Libération",,50.05287,6.030029,,,0,,,0
110101009,,"Clervaux, Place Benelux",,50.054823,6.031138,,,0,,,0
110101006,,"Clervaux, Parc",,50.055474,6.031628,,,0,,,0
110101007,,"Clervaux, Piscine",,50.051472,6.020782,,,0,,,0
140305001,,"Kehmen, Kiirch",,49.899871,6.036334,,,0,,,0
300000071,,"St. Vith, Mein Lust",,50.261757,6.110663,,,0,,,0
110101004,,"Clervaux, Maison de Retraite",,50.057189,6.026576,,,0,,,0
300000070,,"Grüfflingen, Houffalizerstrasse",,50.230344,6.08331,,,0,,,0
110101005,,"Clervaux, Op der Gare",,50.060593,6.024591,,,0,,,0
300000073,,"St. Vith, Maria Goretti",,50.279229,6.129988,,,0,,,0
110101002,,"Clervaux, Gare",,50.060521,6.024595,,,0,,,0
300000072,,"St. Vith, Geschäftskomplex",,50.270296,6.116181,,,0,,,0
110101003,,"Clervaux, Klatzewee",,50.05489,6.028116,,,0,,,0
8700505,,Lutzelbourg,,48.6912273,7.4037227,,,0,,,0
180202001,,Boudler,,49.72204,6.351365,,,0,,,0
300000075,,"Weyler, Gd Route",,49.657474,5.821197,,,0,,,0
300000074,,"St. Vith, Triangel",,50.281291,6.13079,,,0,,,0
110101001,,"Clervaux, Clinique",,50.053376,6.024884,,,0,,,0
300000077,,"Arlon, Place de l'Yser",,49.67848,5.804187,,,0,,,0
300000076,,"Arlon, Clinique",,49.678505,5.821752,,,0,,,0
110405001,,"Neidhausen, Kiirch",,50.028871,6.066199,,,0,,,0
141001002,,"Medernach, Iermsdrëferstr.",,49.814133,6.216378,,,0,,,0
141001001,,"Medernach, Fondation",,49.802117,6.217248,,,0,,,0
160801001,,Asselscheuer/Uesselscheier,,49.690917,6.172061,,,0,,,0
210104001,,Rolling/Bous,,49.550173,6.316456,,,0,,,0
190201002,,"Clemency, Eescherwee",,49.602703,5.876411,,,0,,,0
190201001,,"Clemency, Breedewee",,49.590384,5.879344,,,0,,,0
8800146,,Bruxelles-Schuman,,50.7636359,4.4396778,,,0,,,0
190201008,,"Clemency, Schwemm",,49.595019,5.880723,,,0,,,0
190201007,,"Clemency, Schock",,49.605412,5.878107,,,0,,,0
180401011,,"Grevenmacher, Stadion",,49.687313,6.44897,,,0,,,0
141001004,,"Medernach, Op der Lann",,49.809422,6.216898,,,0,,,0
141001003,,"Medernach, Op der Gare",,49.805323,6.214034,,,0,,,0
190201004,,"Clemency, Gemeng",,49.598885,5.873306,,,0,,,0
190201003,,"Clemency, Féngegerbierg",,49.597925,5.885077,,,0,,,0
190201006,,"Clemency, Ieweschtgaass",,49.594623,5.874049,,,0,,,0
180401010,,"Grevenmacher, Schoul 2",,49.683206,6.441851,,,0,,,0
190201005,,"Clemency, Henn",,49.594526,5.877446,,,0,,,0
170601003,,"Born, Op Kimmelt",,49.767635,6.514616,,,0,,,0
170601004,,"Born, Pëtzwee",,49.760166,6.512845,,,0,,,0
170601001,,"Born, Kapell",,49.758214,6.510335,,,0,,,0
170601002,,"Born, Op der Gare",,49.756937,6.507442,,,0,,,0
110823001,,Emeschbach,,50.092463,5.955159,,,0,,,0
180401009,,"Grevenmacher, Op Flohr",,49.68923,6.44496,,,0,,,0
8800138,,Ottignies,,50.6262459,4.6411182,,,0,,,0
180401008,,"Grevenmacher, Tanneurs",,49.680647,6.440446,,,0,,,0
120705001,,"Liefrange, Kiirch",,49.909374,5.876162,,,0,,,0
180401005,,"Grevenmacher, rte.de Machtum",,49.670624,6.43145,,,0,,,0
180401004,,"Grevenmacher, Jardin des Papillons",,49.684013,6.449074,,,0,,,0
180401007,,"Grevenmacher, Seidenbroch",,49.674996,6.420906,,,0,,,0
180401006,,"Grevenmacher, Schoul",,49.682447,6.443333,,,0,,,0
160906001,,"Pettingen, Barriär",,49.768648,6.110257,,,0,,,0
180401001,,"Grevenmacher, Copal",,49.676239,6.428285,,,0,,,0
180401003,,"Grevenmacher, Gare routière",,49.680196,6.446487,,,0,,,0
160906002,,"Pettingen, Schlass",,49.770375,6.107348,,,0,,,0
180401002,,"Grevenmacher, Enner der Bréck",,49.67627,6.442673,,,0,,,0
300000040,,Mageret,,50.014438,5.785805,,,0,,,0
300000049,,"Sterpenich, rue du Duché",,49.647082,5.890695,,,0,,,0
200409014,,"Luxembourg, Chingiz Aitmatov",,49.640866,6.136756,,,0,,,0
300000042,,"Marvie, Route",,49.991303,5.74628,,,0,,,0
200409010,,"Dommeldange, Parc de l'Europe",,49.638828,6.144218,,,0,,,0
300000041,,Marloie,,50.202505,5.313956,,,0,,,0
200409011,,"Dommeldange, Van der Meulen",,49.636459,6.143747,,,0,,,0
300000044,,"Namur, Gare",,50.469083,4.862952,,,0,,,0
200409012,,"Dommeldange, Sidney Thomas",,49.634419,6.139462,,,0,,,0
300000043,,"Messancy, Gare",,49.592379,5.818168,,,0,,,0
200409013,,"Dommeldange, Uelzechtlycée",,49.637105,6.137116,,,0,,,0
120903044,,"Wiltz, Am Pëtz",,49.971728,5.942649,,,0,,,0
300000046,,Virton,,49.560559,5.519445,,,0,,,0
120903043,,"Wiltz, Heedeknippchen",,49.958257,5.934327,,,0,,,0
300000045,,"Sélange, Eglise",,49.599446,5.817998,,,0,,,0
120903042,,"Wiltz, op der Lee",,49.958127,5.929761,,,0,,,0
300000048,,Wardin,,49.991347,5.788183,,,0,,,0
120903041,,"Wiltz, Wéinebeerig",,49.969434,5.936155,,,0,,,0
300000047,,"Wardin, Route",,49.987507,5.794411,,,0,,,0
120903040,,"Wiltz, Wegdicher Bréck",,49.972254,5.940049,,,0,,,0
200422007,,"Neudorf, Kalchesbruck",,49.622585,6.185134,,,0,,,0
200422006,,"Neudorf, Huesegrëndchen",,49.622903,6.164274,,,0,,,0
8700021,,DIJON VILLE,,47.2324625,5.0271397,,,0,,,0
200422009,,"Neudorf, Kierch",,49.62122,6.161685,,,0,,,0
200422008,,"Neiduerf, Kapell",,49.623509,6.168449,,,0,,,0
200422003,,"Neudorf/Weimershof, Fierschterhaus",,49.623671,6.177288,,,0,,,0
200422002,,"Neudorf, Carrières",,49.625507,6.165895,,,0,,,0
140601001,,"Burden, Beim Fëschweiher",,49.878045,6.078795,,,0,,,0
200422005,,"Neudorf/Weimershof, Hierzekrëpp",,49.617155,6.151841,,,0,,,0
200422004,,"Neudorf/Weimershof, Grunewald",,49.628419,6.177207,,,0,,,0
140601002,,"Burden, Haaptstrooss",,49.881783,6.091503,,,0,,,0
120802001,,"Lultzhausen, Bif.Lultzhausen",,49.907534,5.890379,,,0,,,0
120802002,,"Lultzhausen, Driicht",,49.909063,5.890015,,,0,,,0
300000039,,Longvilly,,50.024996,5.835051,,,0,,,0
200409007,,"Dommeldange, Emile Metz",,49.635127,6.13424,,,0,,,0
300000038,,Longeau,,49.580494,5.825043,,,0,,,0
200409008,,"Dommeldange, Gare",,49.633385,6.136918,,,0,,,0
200409009,,"Dommeldange, Jean Engling",,49.638231,6.141552,,,0,,,0
110105001,,"Weicherdange, Café Bourg",,50.037831,5.984836,,,0,,,0
200409003,,"Dommeldange, Château",,49.634686,6.138615,,,0,,,0
110105002,,"Weicherdange, Kierch",,50.037061,5.988069,,,0,,,0
110105003,,"Weicherdange, Kirelshaff",,50.032207,5.972005,,,0,,,0
120903039,,"Wiltz, Schwemm",,49.962842,5.922321,,,0,,,0
200409005,,"Dommeldange, Contournement",,49.632961,6.139409,,,0,,,0
120903038,,"Wiltz, Schumann",,49.946937,5.881301,,,0,,,0
200409006,,"Dommeldange, Dauschbuer",,49.640113,6.152898,,,0,,,0
120903037,,"Wiltz, Schlass",,49.966707,5.936454,,,0,,,0
300000031,,Frassem-Rte.d'Arlon,,49.704475,5.829157,,,0,,,0
120903036,,"Wiltz, Salzbaach/alen Tipp",,49.962314,5.907237,,,0,,,0
300000030,,"Bruxelles-Midi, Gare",,50.836645,4.335666,,,0,,,0
120903035,,"Wiltz, Huuschtewee",,49.963845,5.929969,,,0,,,0
300000033,,Halanzy,,49.556124,5.743313,,,0,,,0
200409001,,"Dommeldange, ArcelorMittal",,49.641007,6.134448,,,0,,,0
200422001,,"Neiduerf, Brasserie",,49.622212,6.164716,,,0,,,0
120903034,,"Wiltz, Dekanatskierch",,49.968912,5.931725,,,0,,,0
300000032,,"Gouvy, Gare",,50.188864,5.955445,,,0,,,0
200409002,,"Dommeldange, Barriär",,49.63723,6.146542,,,0,,,0
120903033,,"Wiltz, Post",,49.966099,5.93182,,,0,,,0
300000035,,Libramont,,49.919703,5.379822,,,0,,,0
190701001,,"Goeblange, Giewel",,49.669578,5.965057,,,0,,,0
300000034,,Jemelle,,50.160433,5.266106,,,0,,,0
150701001,,"Calmus, Lannekneppchen",,49.721607,5.961007,,,0,,,0
120903031,,"Wiltz, Huuschtewee/Parking",,49.962766,5.926565,,,0,,,0
300000037,,Liers,,50.698256,5.568441,,,0,,,0
150701002,,"Calmus, Schoul",,49.723701,5.962625,,,0,,,0
120903030,,"Wiltz, Kautebaacherstrooss",,49.966894,5.93368,,,0,,,0
300000036,,Liège-Guillemins,,50.624624,5.566059,,,0,,,0
150701003,,"Calmus, Wäschbur",,49.725017,5.963056,,,0,,,0
200203002,,"Moutfort, Juxgaass",,49.58799,6.251557,,,0,,,0
200203001,,"Moutfort, Bombasch",,49.594777,6.250192,,,0,,,0
300000060,,"Messancy, rue de Luxembourg",,49.593746,5.831573,,,0,,,0
300000062,,"Messancy, Aire de jeux",,49.593306,5.822744,,,0,,,0
300000061,,"Messancy, rue de la 5ème Brigade",,49.594032,5.822655,,,0,,,0
200901033,,"Strassen, Les Thermes",,49.612276,6.076379,,,0,,,0
200901034,,"Strassen, Schafsstrachen",,49.620855,6.087995,,,0,,,0
200901035,,"Strassen, Cité Pescher",,49.621456,6.07864,,,0,,,0
200901036,,"Strassen, Oricher-Hoehl",,49.621739,6.080963,,,0,,,0
160205003,,"Grevenknapp, Um ënnschte Knapp",,49.765495,6.028361,,,0,,,0
160205002,,"Grevenknapp, Riesenhaff",,49.762839,6.031787,,,0,,,0
300000064,,Blankenberg,,51.312163,3.134232,,,0,,,0
300000063,,"Bertrix, Gare",,49.856049,5.260434,,,0,,,0
300000066,,Herstal,,50.661238,5.623538,,,0,,,0
300000065,,"Liege, Jonfosse",,50.640789,5.562348,,,0,,,0
300000068,,"Liege, Palais",,50.646545,5.570558,,,0,,,0
200203005,,"Moutfort, Syrbréck",,49.587387,6.255327,,,0,,,0
300000067,,"Herstal, Milmort",,50.69626,5.595767,,,0,,,0
200203004,,"Moutfort, Kiem",,49.586149,6.260807,,,0,,,0
200203003,,"Moutfort, Kapell",,49.587939,6.25852,,,0,,,0
300000069,,"Beho, rue de l'Eglise",,50.213835,5.987768,,,0,,,0
300000051,,"Barnich-Autelbas, Eglise",,49.650028,5.869834,,,0,,,0
170605002,,"Moersdorf, Olek",,49.741826,6.501263,,,0,,,0
300000050,,"Sterpenich, rue de la Gendarmerie",,49.647997,5.888905,,,0,,,0
170605001,,"Moersdorf, Duerf",,49.745095,6.501011,,,0,,,0
210303001,,"Welfrange, Op der Plaz",,49.539651,6.283841,,,0,,,0
170305001,,Bif. Kalkesbach,,49.800193,6.343334,,,0,,,0
200410005,,"Eich, Octroi",,49.622479,6.130315,,,0,,,0
200410003,,"Eich, Eecher Plaz",,49.627616,6.12993,,,0,,,0
200410004,,"Eich, Klinik",,49.631762,6.134603,,,0,,,0
200410001,,"Eich, Centre Culturel",,49.628982,6.132412,,,0,,,0
200410002,,"Eich, Ecole Eich",,49.626948,6.127684,,,0,,,0
300000053,,"Hondelange, rue des Lilas",,49.638958,5.840233,,,0,,,0
300000052,,"Autelhaut, Eglise",,49.651174,5.843141,,,0,,,0
300000055,,"Hondelange, Centre (aire de jeux)",,49.632435,5.832345,,,0,,,0
120401002,,"Bockholtz/Wiltz, Op der Millen",,49.92654,6.006729,,,0,,,0
300000054,,"Hondelange, rue St. Nicolas",,49.636513,5.838023,,,0,,,0
300000057,,"Sélange, rue du Bois",,49.612263,5.847748,,,0,,,0
300000056,,"Hondelange, rue du Pont",,49.631045,5.836105,,,0,,,0
120401001,,Bockholtz/Wiltz,,49.922864,5.995392,,,0,,,0
300000059,,"Sélange, rue de Clemency",,49.606456,5.850241,,,0,,,0
110803003,,"Boxhorn, Schemer",,50.082206,5.990593,,,0,,,0
121003001,,"Doncols, Bei der Kierch",,49.969983,5.837366,,,0,,,0
121003002,,"Doncols, Beim Schnegder",,49.968991,5.835311,,,0,,,0
200901010,,"Strassen, Follereau",,49.618517,6.058184,,,0,,,0
200901011,,"Strassen, Schoenacht",,49.622199,6.057906,,,0,,,0
200102003,,"Helfenterbréck, Pletzer",,49.603597,6.075403,,,0,,,0
200102004,,"Helfenterbréck, Quai 3",,49.603674,6.078084,,,0,,,0
200901013,,"Strassen, Grande-Duchesse Charlotte",,49.619086,6.07208,,,0,,,0
200102001,,"Helfent, Automobile Club",,49.601261,6.069134,,,0,,,0
200901014,,"Strassen, Hondseck",,49.618036,6.087513,,,0,,,0
200102002,,"Helfent, City Concorde",,49.600738,6.065912,,,0,,,0
200901015,,"Strassen, Huorgarten",,49.617363,6.092233,,,0,,,0
200901016,,"Strassen, Geesseneck",,49.621645,6.062316,,,0,,,0
200901017,,"Strassen, Kesseler",,49.62096,6.066511,,,0,,,0
110803002,,"Boxhorn, Hongerkaul",,50.080244,5.996126,,,0,,,0
200901018,,"Strassen, Kiem",,49.61857,6.078023,,,0,,,0
110803001,,"Boxhorn, Eglise",,50.083935,5.99138,,,0,,,0
300000006,,"Arlon, rue Léon Castilhon",,49.682972,5.806874,,,0,,,0
200901019,,"Strassen, Les Aubépines",,49.616046,6.090304,,,0,,,0
300000005,,"Arlon, Pl.des Chasseurs Ard.",,49.683332,5.813076,,,0,,,0
300000008,,"Athus, Croisement Gare",,49.562992,5.827549,,,0,,,0
300000007,,"Athus, Centre (Grand Rue)",,49.563055,5.831141,,,0,,,0
300000009,,"Athus, Douane",,49.561443,5.841287,,,0,,,0
120708001,,"Tarchamps, Kierch",,49.949541,5.795387,,,0,,,0
121003003,,"Doncols, Um Wäschbur",,49.968133,5.832215,,,0,,,0
300000002,,"Arlon, Cimetière",,49.696491,5.820162,,,0,,,0
300000001,,"Arlon, Centre judiciaire",,49.687421,5.819104,,,0,,,0
300000004,,"Arlon, INDA",,49.681544,5.815772,,,0,,,0
110402001,,Dosberbréck,,50.049189,6.12604,,,0,,,0
300000003,,"Arlon, Gare",,49.680669,5.807857,,,0,,,0
140901002,,"Hoscheid, Kräizgaass",,49.945937,6.080473,,,0,,,0
140901001,,"Hoscheid, Braaken",,49.950132,6.081307,,,0,,,0
130204001,,"Fouhren, Halt",,49.912357,6.193826,,,0,,,0
200901020,,"Strassen, Benelux",,49.619693,6.076184,,,0,,,0
140901003,,"Hoscheid, Markenbach",,49.938459,6.083978,,,0,,,0
200901022,,"Strassen, Michel Angelo",,49.61668,6.086915,,,0,,,0
200901024,,"Strassen, Primeurs",,49.619925,6.093922,,,0,,,0
200901025,,"Strassen, Réimerwee",,49.61782,6.082153,,,0,,,0
200901026,,"Strassen, Riedgen",,49.618125,6.057612,,,0,,,0
200901028,,"Bertrange, Spatzwiss",,49.610618,6.068088,,,0,,,0
200901029,,"Strassen, Terminus",,49.62177,6.058389,,,0,,,0
161006001,,Aechelbur,,49.801536,6.185383,,,0,,,0
141203005,,"Reisdorf, Duddwee",,49.858892,6.273655,,,0,,,0
141203003,,"Reisdorf, Beim Goberhaff",,49.861307,6.27114,,,0,,,0
141203004,,"Reisdorf, Cité J. Hientgen",,49.868695,6.260591,,,0,,,0
201004001,,"Walferdange, Gare",,49.661695,6.136143,,,0,,,0
141203001,,"Reisdorf, An der Ee",,49.870267,6.269633,,,0,,,0
201004002,,"Walferdange, Gemenge Plaz",,49.659143,6.130805,,,0,,,0
141203002,,"Reisdorf, Bei der Gare",,49.867976,6.263624,,,0,,,0
8700452,,Réding(F),,48.7175945,7.3430293,,,0,,,0
180304001,,"Gostingen, Am Ennerduerf",,49.61965,6.353087,,,0,,,0
180304002,,"Gostingen, Kiirch",,49.622169,6.353892,,,0,,,0
300000028,,Benonchamps,,50.004793,5.808587,,,0,,,0
300000027,,"Bastogne, rue de Wiltz",,49.992794,5.736913,,,0,,,0
300000029,,Bras,,49.985429,5.821228,,,0,,,0
300000020,,"Bastogne, Centre Sportif",,50.005657,5.722501,,,0,,,0
200422010,,"Neiduerf, Kierfecht",,49.626434,6.174733,,,0,,,0
300000022,,"Bastogne, Pl. McAuliffe",,50.000238,5.715096,,,0,,,0
300000021,,"Bastogne, Eglise",,50.007461,5.718861,,,0,,,0
200422011,,"Neudorf, Laangegronn",,49.624484,6.171896,,,0,,,0
300000024,,"Bastogne, Police",,50.002023,5.70886,,,0,,,0
110815001,,Oberwampach-Bréck,,50.016004,5.857687,,,0,,,0
300000023,,"Bastogne, Place Merceny",,49.998487,5.716471,,,0,,,0
300000026,,"Bastogne, Renval",,50.003806,5.702611,,,0,,,0
300000025,,"Bastogne, Relais",,49.994172,5.729339,,,0,,,0
160903001,,Hunnebour,,49.729355,6.079908,,,0,,,0
200901001,,"Strassen, Aalbach",,49.608168,6.07758,,,0,,,0
200901002,,"Strassen, Atrium",,49.608568,6.079176,,,0,,,0
200901003,,"Strassen, Aurélia",,49.618983,6.08081,,,0,,,0
200901004,,"Strassen, Barblé",,49.620314,6.071535,,,0,,,0
200901005,,"Strassen, Bechel",,49.618914,6.069224,,,0,,,0
200901007,,"Strassen, Bourmicht",,49.610766,6.079986,,,0,,,0
300000017,,"Aubange, Gare",,49.563803,5.798546,,,0,,,0
200901008,,"Strassen, Chapelle",,49.61863,6.064048,,,0,,,0
300000016,,"Aubange, Douane",,49.559162,5.792418,,,0,,,0
300000019,,"Aubange, rue Gillet",,49.56779,5.804109,,,0,,,0
300000018,,"Aubange, Mairie",,49.566004,5.801362,,,0,,,0
150206001,,"Bettborn, Gemenge Plaz",,49.793944,5.937634,,,0,,,0
300000011,,"Athus, Gare",,49.563763,5.828108,,,0,,,0
300000010,,"Athus, Garage Peugeot",,49.562905,5.834885,,,0,,,0
300000013,,"Athus, rue de Longeau",,49.572831,5.830051,,,0,,,0
300000012,,"Athus, Place du Bruhl",,49.560383,5.837414,,,0,,,0
300000015,,"Athus, Station BP",,49.568274,5.829198,,,0,,,0
300000014,,"Athus, rue du Commerce",,49.560887,5.842997,,,0,,,0
220201004,,"Differdange, Béckleck",,49.512415,5.871918,,,0,,,0
220201003,,"Differdange, Arbed",,49.52292,5.894161,,,0,,,0
220201006,,"Differdange, Centre",,49.524252,5.889488,,,0,,,0
220201007,,"Differdange, Centre Sportif",,49.510824,5.89099,,,0,,,0
220201009,,"Differdange, Cimetière Diff.",,49.515772,5.886627,,,0,,,0
110807002,,"Derenbach, Groëstaen",,50.009666,5.884862,,,0,,,0
180604001,,Munschecker,,49.699426,6.441054,,,0,,,0
110807001,,"Derenbach, Chapelle",,50.011274,5.88346,,,0,,,0
190802001,,"Kopstal, Bréck",,49.664181,6.072283,,,0,,,0
110807004,,"Derenbach, Weischent",,50.009569,5.894319,,,0,,,0
110807003,,"Derenbach, Kiirch",,50.014562,5.888943,,,0,,,0
220402221,,"Esch/Alzette, Terres Rouges",,49.490896,5.974734,,,0,,,0
140203001,,"Gilsdorf, An der Kléck",,49.869653,6.181618,,,0,,,0
140203002,,"Gilsdorf, Schoul",,49.865275,6.179521,,,0,,,0
140203003,,"Gilsdorf, Clemenshaff",,49.843131,6.159833,,,0,,,0
150108002,,"Schweich, Peiffer",,49.720893,5.921379,,,0,,,0
140203004,,"Gilsdorf, Deiwelselter",,49.857972,6.163777,,,0,,,0
140203005,,"Gilsdorf, Mouschbierg",,49.843058,6.170451,,,0,,,0
220201002,,"Differdange, Am Bësch",,49.517011,5.860915,,,0,,,0
220201001,,"Differdange, Aal Gare",,49.527879,5.890861,,,0,,,0
220201015,,"Differdange, Ecole Woiwer",,49.52045,5.907709,,,0,,,0
220201014,,"Differdange, Ecole um Bock",,49.512966,5.897721,,,0,,,0
220201017,,"Differdange, rue Funiculaire",,49.516324,5.899789,,,0,,,0
220201019,,"Differdange, Fousbann",,49.521742,5.897857,,,0,,,0
161002001,,"Niederglabach, Peffeschhaff",,49.791233,6.156201,,,0,,,0
220201018,,"Differdange, Fonds de Logement",,49.523262,5.885446,,,0,,,0
140301003,,"Bourscheid, Millen",,49.914195,6.088563,,,0,,,0
140301001,,"Bourscheid, Kiirch",,49.909935,6.064483,,,0,,,0
1115911,,École Européenne Quai 1A,,49.62664,6.15198,,,0,,,0
160805001,,"Hünsdorf, Alsbich",,49.696369,6.131483,,,0,,,0
140301002,,"Bourscheid, Meesch",,49.907802,6.060545,,,0,,,0
210701021,,"Remich, Chemin des Vignes",,49.543834,6.361944,,,0,,,0
210701022,,"Remich, rue Lamort-Velter",,49.542558,6.359261,,,0,,,0
210701023,,"Remich, Bolzplaz",,49.540023,6.362108,,,0,,,0
150401001,,"Dellen, Am Duerf",,49.858697,5.958672,,,0,,,0
210701024,,"Remich, Schoul",,49.546476,6.364968,,,0,,,0
220201011,,"Differdange, Cité Breitfeld",,49.51837,5.914404,,,0,,,0
220201010,,"Differdange, Cimetière Oberc.",,49.515129,5.903872,,,0,,,0
210701020,,"Remich, Janglisbunn",,49.546108,6.360674,,,0,,,0
220201012,,"Differdange, Douane",,49.510982,5.87183,,,0,,,0
220201026,,"Differdange, Hansen",,49.520757,5.907095,,,0,,,0
220201025,,"Differdange, Grillplaz",,49.514342,5.86899,,,0,,,0
1115903,,École Européenne Quai 3,,49.626554,6.152124,,,0,,,0
220201028,,"Niederkorn, CHEM 2",,49.53377,5.889105,,,0,,,0
180105001,,"Olingen, Am Kéisbierg",,49.679302,6.319819,,,0,,,0
180105002,,"Olingen, Beim leschte Wollef",,49.681837,6.308505,,,0,,,0
220201029,,"Differdange, Maison des Soins",,49.522022,5.888192,,,0,,,0
180105003,,"Olingen, Rue de Rodenbourg",,49.680174,6.31399,,,0,,,0
180105004,,"Olingen, Centre culturel",,49.679942,6.314834,,,0,,,0
180105005,,"Olingen, rue de Betzdorf",,49.681987,6.316898,,,0,,,0
200402005,,"Beggen, Henri Heymans",,49.637989,6.132118,,,0,,,0
200402004,,"Beggen, Henri Dunant",,49.647421,6.13446,,,0,,,0
110304002,,"Hupperdange, Schull",,50.096054,6.057327,,,0,,,0
200402007,,"Beggen, Rue du Pont",,49.649234,6.127744,,,0,,,0
200402006,,"Beggen, Kierch",,49.643446,6.129442,,,0,,,0
1115901,,École Européenne Quai 1,,49.626695,6.152005,,,0,,,0
1115902,,École Européenne Quai 2,,49.626607,6.152065,,,0,,,0
110304003,,"Hupperdange, Hualewee",,50.095827,6.062235,,,0,,,0
1115900,,École Européenne,,49.626607,6.152065,,,0,,,0
160805002,,"Hünsdorf, Eglise",,49.696713,6.130131,,,0,,,0
200402001,,"Beggen, Bastogne",,49.645855,6.128275,,,0,,,0
200402003,,"Beggen, Cyprien Merjai",,49.643399,6.134779,,,0,,,0
200402002,,"Beggen, Binnchen",,49.641535,6.130345,,,0,,,0
220201020,,"Differdange, Foyer Scolaire",,49.511186,5.894739,,,0,,,0
110819001,,Stockem (LUX),,50.077911,5.957368,,,0,,,0
211003002,,"Wellenstein, rte.de Mondorf",,49.523594,6.338103,,,0,,,0
220201022,,"Differdange, Gemeng",,49.520699,5.887848,,,0,,,0
8700097,,MONTPELLIER SAINT-ROCH,,43.6046498,3.8808213,,,0,,,0
211003001,,"Wellenstein, Centre",,49.524829,6.341698,,,0,,,0
220201021,,"Differdange, Gare",,49.52263,5.891747,,,0,,,0
220201024,,"Differdange, Grand-Rue",,49.523678,5.887562,,,0,,,0
220201023,,"Differdange, Gewännchen",,49.521268,5.914443,,,0,,,0
220201037,,"Differdange, Place des Alliés",,49.520853,5.899613,,,0,,,0
220201036,,"Differdange, Place de France",,49.521494,5.882947,,,0,,,0
220201039,,"Differdange, Profi",,49.520896,5.905221,,,0,,,0
220201038,,"Differdange, Police",,49.517592,5.887396,,,0,,,0
190802002,,"Kopstal, Kapell",,49.661141,6.072313,,,0,,,0
190802003,,"Kopstal, Saangen",,49.668766,6.072853,,,0,,,0
220201031,,"Differdange, Moartplaz",,49.52262,5.887685,,,0,,,0
120701001,,"Bavigne, Gemeng",,49.920282,5.848091,,,0,,,0
220201032,,"Obercorn, Gare",,49.509359,5.893363,,,0,,,0
220201035,,"Differdange, Pasteur",,49.515997,5.888313,,,0,,,0
220201034,,"Differdange, Parc Gerlache",,49.52411,5.890907,,,0,,,0
110608001,,Maison Legay,,50.110684,5.982834,,,0,,,0
200414010,,"Hamm, Fetschebur",,49.614148,6.162013,,,0,,,0
180803003,,"Machtum, Gellebur",,49.659854,6.431782,,,0,,,0
180803002,,"Machtum, Deisermillen",,49.661675,6.425061,,,0,,,0
180803005,,"Machtum, Bei der Schoul",,49.659465,6.436112,,,0,,,0
180803004,,"Machtum, Ongkaf",,49.659478,6.437511,,,0,,,0
221201012,,"Rumelange, Schmelz",,49.461622,6.034469,,,0,,,0
221201011,,"Rumelange, Rembour",,49.46327,6.01637,,,0,,,0
221201010,,"Rumelange, Pl. de France",,49.45426,6.028096,,,0,,,0
200706001,,"Uebersyren, Kreizgaass",,49.631454,6.276035,,,0,,,0
210202003,,"Elvange/Mondorf, Villette",,49.507023,6.31473,,,0,,,0
120502003,,"Heiderscheid, Zone Commerciale",,49.885166,5.982126,,,0,,,0
221201009,,"Rumelange, Maartplaz",,49.460859,6.030347,,,0,,,0
210202004,,"Elvange, Wëntrengerstrooss",,49.504032,6.318831,,,0,,,0
120502002,,Heiderscheid,,49.886721,5.978255,,,0,,,0
221201008,,"Rumelange, Märtyrerstrooss",,49.45738,6.030792,,,0,,,0
120502001,,"Heiderscheid, Fuussekaul",,49.878016,5.993264,,,0,,,0
221201007,,"Rumelange, Laangegronn",,49.462017,6.021526,,,0,,,0
221201006,,"Rumelange, Intermoselle",,49.464198,6.01434,,,0,,,0
200426009,,"Weimerskirch, Pierre-Eloi Schoué",,49.626448,6.13691,,,0,,,0
221201005,,"Rumelange, Gare",,49.459813,6.032701,,,0,,,0
200426008,,"Weimerskirch, Mäertesbur",,49.627947,6.139301,,,0,,,0
221201004,,"Rumelange, Centre Culturel",,49.462181,6.02614,,,0,,,0
200426007,,"Weimerskirch, Laval's Park",,49.628187,6.133013,,,0,,,0
221201003,,"Rumelange, Atelier Kihn",,49.465026,6.03672,,,0,,,0
200426006,,"Weimerskirch, Knupp",,49.62879,6.135581,,,0,,,0
221201002,,"Rumelange, Aale Kierfecht",,49.462349,6.024611,,,0,,,0
190603002,,"Keispelt, Spellen Eck",,49.695193,6.065578,,,0,,,0
190603001,,"Keispelt, Bei Péickes",,49.69338,6.067865,,,0,,,0
200426005,,"Weimerskirch, Duerf",,49.62824,6.135863,,,0,,,0
150705002,,"Schwebach, Bréck",,49.747568,5.973935,,,0,,,0
200426004,,"Weimerskirch, Biechelchen",,49.633521,6.141703,,,0,,,0
200426003,,"Weimershof, Pâquerettes",,49.622573,6.158906,,,0,,,0
200426002,,"Weimershof, Joseph Hackin",,49.629454,6.170223,,,0,,,0
150705001,,"Schwebach, Am Duerf",,49.745644,5.970903,,,0,,,0
200426001,,"Weimershof, Bleuets",,49.620535,6.153943,,,0,,,0
210202001,,"Elvange/Mondorf, Bei Tubes",,49.505197,6.315534,,,0,,,0
210202002,,"Elvange/Mondorf, Kallekskaul",,49.502017,6.314175,,,0,,,0
110503002,,"Munshausen, bei der Kierch",,50.032731,6.037543,,,0,,,0
110503001,,"Munshausen, Am iewweschten Duarref",,50.035663,6.036832,,,0,,,0
200601010,,"Sandweiler, Schiltzperdgen",,49.615717,6.221806,,,0,,,0
200601011,,U.S. Military Cemetery,,49.61336,6.186828,,,0,,,0
200601012,,"Sandweiler, rue d'Itzig",,49.614201,6.215274,,,0,,,0
200601013,,"Sandweiler-Contern, Gare",,49.600861,6.205625,,,0,,,0
160201003,,"Boevange, Gare",,49.774764,6.008192,,,0,,,0
160201002,,"Boevange, Attert",,49.777267,6.014206,,,0,,,0
160201005,,"Boevange, Lëtschert",,49.773177,6.017792,,,0,,,0
110702001,,"Binsfeld, Om Béchel",,50.119871,6.040881,,,0,,,0
160201004,,"Boevange, Helpert",,49.774883,6.011047,,,0,,,0
110702002,,"Binsfeld, Beim alen Burren",,50.119644,6.036949,,,0,,,0
110702003,,"Binsfeld, Beim Musée",,50.117314,6.035876,,,0,,,0
160201006,,"Boevange, Uerbelt",,49.774673,6.008851,,,0,,,0
190404001,,"Kahler, Gare",,49.635359,5.914867,,,0,,,0
190404002,,"Kahler, Kiirch",,49.631316,5.91677,,,0,,,0
190404003,,"Kahler, Schmëtt",,49.628651,5.917701,,,0,,,0
200414001,,"Hamm, Colonie",,49.607082,6.155266,,,0,,,0
200414002,,"Hamm, Englebert Neveu",,49.605585,6.152557,,,0,,,0
180511001,,"Junglinster, Gemeng",,49.715259,6.249606,,,0,,,0
200414003,,"Hamm, Käschtewee",,49.612589,6.172543,,,0,,,0
180511002,,"Junglinster, Op der Gare",,49.711458,6.252443,,,0,,,0
200414004,,"Hamm, Kierch",,49.610011,6.166836,,,0,,,0
180511003,,"Junglinster, Op der Rumm",,49.714829,6.248187,,,0,,,0
210401005,,"Canach, rue Haart",,49.609182,6.325496,,,0,,,0
120303001,,"Knaphoscheid, Dahl",,50.016428,5.964788,,,0,,,0
180511004,,"Junglinster, Rue de la Gare",,49.711647,6.252848,,,0,,,0
210401004,,"Canach, Post",,49.609363,6.324392,,,0,,,0
120303002,,"Knaphoscheid, Schenten",,50.012453,5.963112,,,0,,,0
180511005,,"Junglinster, Um Lei",,49.708178,6.249937,,,0,,,0
210401007,,"Canach, Z.A. Rëckschleed",,49.605865,6.306588,,,0,,,0
180511006,,"Junglinster, Um Radio",,49.720014,6.266529,,,0,,,0
210401006,,"Canach, Weber",,49.609033,6.322541,,,0,,,0
180511007,,"Junglinster, Um Reiland",,49.715418,6.261265,,,0,,,0
200601003,,"Sandweiler, Du Pont",,49.598152,6.210459,,,0,,,0
180511008,,"Junglinster, Lycée",,49.701278,6.249952,,,0,,,0
110410001,,Gemönnerbréck,,49.986799,6.163179,,,0,,,0
200601004,,"Sandweiler, Hiel",,49.617041,6.215888,,,0,,,0
180511009,,"Junglinster, Op der Fréinen",,49.70448,6.248439,,,0,,,0
200601001,,"Sandweiler, Am Eck",,49.613217,6.212132,,,0,,,0
180803001,,"Machtum, Bei Kallek's",,49.659819,6.43626,,,0,,,0
200601002,,"Sandweiler, Apdikt",,49.615247,6.222857,,,0,,,0
200601007,,"Sandweiler, Koschterjanshaff",,49.613153,6.226715,,,0,,,0
130103001,,"Merscheid/Putscheid, Hennischtgaass",,49.953676,6.105339,,,0,,,0
200601008,,"Sandweiler, Rue d Oetrange",,49.613475,6.22624,,,0,,,0
150506002,,"Folschette, Bellevue",,49.818564,5.863219,,,0,,,0
200601005,,"Sandweiler, Kiirch",,49.61627,6.219393,,,0,,,0
150506001,,"Folschette, An der Gaass",,49.813081,5.877741,,,0,,,0
200601006,,"Sandweiler, Kontrollstatioun",,49.615763,6.209522,,,0,,,0
150506004,,"Folschette, Op der Plaz",,49.813386,5.874677,,,0,,,0
210401001,,"Canach, Am Stee",,49.612254,6.331904,,,0,,,0
150506003,,"Folschette, Centre Culturel",,49.814525,5.872879,,,0,,,0
150506006,,"Folschette, Foulschterbaach",,49.80888,5.895125,,,0,,,0
200601009,,"Sandweiler, Schaedhaff",,49.606836,6.203816,,,0,,,0
210401003,,"Canach, Op der Bréck",,49.611829,6.326735,,,0,,,0
150506005,,"Folschette, Rammericherwee",,49.816478,5.86925,,,0,,,0
210401002,,"Canach, Huehlgaass",,49.608061,6.315922,,,0,,,0
200414005,,"Hamm, Montmédy",,49.604035,6.148453,,,0,,,0
200414006,,"Hamm, Rue de Bitbourg",,49.613109,6.169896,,,0,,,0
200414007,,"Hamm, Rue Haute",,49.611019,6.169782,,,0,,,0
200414008,,"Hamm, Schoul",,49.609135,6.161931,,,0,,,0
200414009,,"Hamm, Ronndréisch",,49.614831,6.17449,,,0,,,0
221002001,,"Limpach, Kiirch",,49.558155,5.979512,,,0,,,0
221002002,,"Limpach, Uecht",,49.556088,5.979957,,,0,,,0
500000085,,"Tünsdorf, Ortsmitte B406",,49.474972,6.497313,,,0,,,0
500000086,,"Wasserliesch, Reiniger Kreuz",,49.701105,6.551536,,,0,,,0
110501001,,"Drauffelt, Bréck",,50.017043,6.008519,,,0,,,0
500000083,,"Trier, Theodor-Heuss-Allee",,49.759399,6.646151,,,0,,,0
500000084,,"Trier, Süd",,49.744609,6.636803,,,0,,,0
500000089,,"Wincheringen, Moselbrücke",,49.606724,6.405588,,,0,,,0
110501005,,"Drauffelt, Park & Rail",,50.016869,6.007706,,,0,,,0
500000087,,"Weiten, Raiffeisen",,49.532894,6.539442,,,0,,,0
110501002,,"Drauffelt, Op der Gare",,50.01725,6.006803,,,0,,,0
500000088,,"Wellen, Parking (Mosel)",,49.671515,6.440385,,,0,,,0
110501003,,"Drauffelt, Op der Léi",,50.01493,6.000553,,,0,,,0
220902021,,"Pétange, Rue des Romains",,49.55549,5.874489,,,0,,,0
120704001,,"Kaundorf, An der Hielt",,49.921057,5.90184,,,0,,,0
200507001,,"Senningen, Duerfplaz",,49.646149,6.238985,,,0,,,0
200507002,,"Senningen, Kierch",,49.649737,6.247248,,,0,,,0
8225141,,Audun-le-Roman/Eglise,,49.4072082,5.9995725,,,0,,,0
200507003,,"Senningen, Um Kiem",,49.649106,6.24303,,,0,,,0
8225142,,Audun-le-Roman/Eglise,,49.4246123,5.9950635,,,0,,,0
200507004,,"Senningen, Martinus",,49.649252,6.24086,,,0,,,0
500000081,,"Trier, P&R Messegelände",,49.73872,6.623347,,,0,,,0
500000082,,"Trier, Pacelliufer",,49.74472,6.628149,,,0,,,0
500000080,,"Trier, Nordallee",,49.761576,6.639061,,,0,,,0
500000074,,"Sirzenich, P&R B51",,49.773967,6.592967,,,0,,,0
500000075,,"Temmels, Kirchstrasse",,49.69111,6.462112,,,0,,,0
160601001,,"Larochette, Bleech",,49.784308,6.220395,,,0,,,0
500000072,,"Saarburg, Bahnhof-Brückenstr.",,49.606993,6.555508,,,0,,,0
160601002,,"Larochette, Boltgesteen",,49.785602,6.214346,,,0,,,0
500000073,,"Saarlouis, Kleiner Markt",,49.313504,6.753166,,,0,,,0
160601003,,"Larochette, Gare",,49.783865,6.219184,,,0,,,0
500000078,,"Trier, Christophstr.",,49.759041,6.64578,,,0,,,0
500000079,,"Trier, Hauptbahnhof",,49.757242,6.651574,,,0,,,0
500000076,,"Trassem, Ortsmitte",,49.576323,6.524061,,,0,,,0
500000077,,"Trier, Bei der Römerbrücke",,49.752432,6.625676,,,0,,,0
160601008,,"Larochette, Spuerkees",,49.784171,6.219555,,,0,,,0
160601004,,"Larochette, Hangelsbour",,49.781322,6.181331,,,0,,,0
160601005,,"Larochette, Leedebach",,49.789285,6.219345,,,0,,,0
160601006,,"Larochette, Millewee",,49.781577,6.218676,,,0,,,0
160601007,,"Larochette, Pomjeesbau",,49.781649,6.218282,,,0,,,0
170804003,,"Waldbillig, Michel Rodange",,49.796339,6.285357,,,0,,,0
130105002,,"Putscheid, Gemengebau",,49.959425,6.139758,,,0,,,0
170804002,,"Waldbillig, Gemeng",,49.796531,6.283971,,,0,,,0
130105001,,"Putscheid, Gemeng",,49.964051,6.131479,,,0,,,0
140206001,,"Broderbour, Broderbour",,49.852112,6.185728,,,0,,,0
8225151,,Malavillers-Mairie,,49.4191429,6.0120357,,,0,,,0
180103002,,"Betzdorf, Gare",,49.688929,6.349186,,,0,,,0
8225152,,Malavillers-Mairie,,49.4382065,6.0015657,,,0,,,0
180103001,,"Betzdorf, Bei der Schoul",,49.687609,6.348883,,,0,,,0
500000070,,Saarbrücken Hbf,,49.241393,6.990554,,,0,,,0
140308001,,"Scheidel, Hengesch",,49.893183,6.044292,,,0,,,0
8225161,,Landres-Gare,,49.4424484,6.0055568,,,0,,,0
120602001,,"Enscherange, Bei Steckech",,49.998775,5.990575,,,0,,,0
120602002,,"Enscherange, Loumillen",,49.997362,5.993678,,,0,,,0
170804001,,"Waldbillig, Bëlleger Kopp",,49.793888,6.280575,,,0,,,0
8225162,,Landres-Gare,,49.4662926,5.9989879,,,0,,,0
170702001,,Girst,,49.77332,6.501671,,,0,,,0
500000096,,"Trier, Zurlaubener Ufer",,49.763475,6.633844,,,0,,,0
500000097,,"Dasburg, Ort",,50.048517,6.132688,,,0,,,0
150901001,,Michelbouch,,49.818492,6.019232,,,0,,,0
110202001,,"Holzthum, Hoecht",,49.982319,6.069159,,,0,,,0
500000094,,"Borg, Ortsmitte",,49.496881,6.438323,,,0,,,0
110202002,,"Holzthum, Kierch",,49.984604,6.072718,,,0,,,0
500000095,,"Trier, Fachhochschule",,49.767368,6.62671,,,0,,,0
110202003,,"Holzthum, Kiirfecht",,49.98688,6.076277,,,0,,,0
8225171,,Landres-Intermarché,,49.444788,5.9996602,,,0,,,0
500000098,,"Daleiden, Feuerwehr",,50.068249,6.184607,,,0,,,0
150901002,,"Michelbuch, route de Bissen",,49.81814,6.019184,,,0,,,0
8225172,,Landres-Intermarché,,49.4707531,6.0004087,,,0,,,0
500000099,,"Irrhausen, Im Pfenn",,50.079616,6.212025,,,0,,,0
180504003,,"Bourglinster, Buchholz",,49.704013,6.211985,,,0,,,0
180504002,,"Bourglinster, Am Duerf",,49.703506,6.217465,,,0,,,0
201101001,,"Hassel, Dielchen",,49.55108,6.204721,,,0,,,0
180504001,,"Bourglinster, Am Brill",,49.707069,6.217484,,,0,,,0
201101002,,"Hassel, Karmesch",,49.549965,6.209223,,,0,,,0
201101003,,"Hassel, Küneftchen",,49.548743,6.212653,,,0,,,0
201101004,,"Hassel, Killebierg",,49.552021,6.207184,,,0,,,0
500000093,,"Schweich, P&R",,49.817086,6.750152,,,0,,,0
500000090,,"Wincheringen Ort, Wincheringen",,49.608823,6.427862,,,0,,,0
500000091,,"Wolsfeld, Kirche",,49.905127,6.464864,,,0,,,0
200417001,,"Kirchberg, Prince Félix",,49.625248,6.140041,,,0,,,0
151003003,,"Grevels, Zentrum",,49.854083,5.91719,,,0,,,0
210801005,,"Greiveldange, Schoul",,49.586594,6.35806,,,0,,,0
151003002,,"Grevels, Ieweschten Eck",,49.849845,5.909738,,,0,,,0
210801004,,"Greiveldange, Raiffeisekeess",,49.586468,6.358814,,,0,,,0
200417002,,"Kirchberg, Albert Borschette",,49.628655,6.162582,,,0,,,0
200417005,,"Kirchberg, Antoine de St Exupéry",,49.627177,6.151492,,,0,,,0
210801001,,"Greiveldange, Bei der Kellerei",,49.587169,6.363522,,,0,,,0
200417004,,"Kirchberg, Alphonse Weicker",,49.633879,6.167611,,,0,,,0
200417007,,"Kirchberg, B.E.I.",,49.620082,6.138848,,,0,,,0
151003001,,"Grevels, Eneschten Eck",,49.857417,5.919079,,,0,,,0
210801003,,"Greiveldange, Neie Wee",,49.587023,6.361081,,,0,,,0
210801002,,"Greiveldange, Gemengebréck",,49.586645,6.358707,,,0,,,0
200405018,,"Centre, Gruef",,49.610509,6.131932,,,0,,,0
200405019,,"Centre, Hällepull",,49.609774,6.128058,,,0,,,0
200405012,,"Centre, Etats-Unis",,49.600093,6.12691,,,0,,,0
200405013,,"Centre, F.D. Roosevelt",,49.608933,6.131499,,,0,,,0
200405010,,"Centre, Commerce",,49.600714,6.12949,,,0,,,0
200405016,,"Centre, Forum Royal",,49.613148,6.127319,,,0,,,0
200405017,,"Centre, Gare (Parvis)",,49.599652,6.133428,,,0,,,0
200405014,,"Centre, Fondation Pescatore",,49.615662,6.12677,,,0,,,0
200405015,,"Centre, Fort Wedell",,49.598371,6.128949,,,0,,,0
200417009,,"Kirchberg, Bricherhaff",,49.62904,6.166161,,,0,,,0
200417008,,"Kirchberg, Bricher Gässel",,49.627012,6.166736,,,0,,,0
221004002,,"Reckange/Mess, Findel",,49.56483,6.008216,,,0,,,0
200417011,,"Kirchberg, Carlo Hemmer",,49.634921,6.169005,,,0,,,0
221004001,,"Reckange/Mess, Am Duerf",,49.562546,6.00375,,,0,,,0
200417014,,"Kirchberg, Erasme/d'Coque",,49.621993,6.152874,,,0,,,0
200417013,,"Kirchberg, Coudenhove-Kalergi",,49.625825,6.160891,,,0,,,0
200417016,,"Kirchberg, Jean Monnet",,49.624769,6.145387,,,0,,,0
200417015,,"Kirchberg, Hôpital",,49.632402,6.174886,,,0,,,0
200417018,,"Kirchberg, Kierch",,49.62915,6.147222,,,0,,,0
200417017,,"Kirchberg, John-F.-Kennedy",,49.632366,6.171577,,,0,,,0
200405009,,"Centre, Charlys Gare",,49.612521,6.122718,,,0,,,0
200405007,,"Centre, Cathédrale",,49.610003,6.13109,,,0,,,0
200405008,,"Luxembourg/Strassen, Centre Hospitalier",,49.618978,6.099933,,,0,,,0
200417010,,"Kirchberg, Uni Campus Kirchberg",,49.627924,6.15919,,,0,,,0
200405001,,"Centre, Al Avenue/A-Z",,49.603459,6.133149,,,0,,,0
110705001,,"Leithum, Bei der aler Schull",,50.159559,6.106456,,,0,,,0
200405002,,"Luxembourg, Gare Centrale Quai 102",,49.600816,6.133207,,,0,,,0
110705002,,"Leithum, Bei der Kirich",,50.160312,6.108525,,,0,,,0
200405005,,"Centre, Badanstalt",,49.613536,6.129207,,,0,,,0
200405006,,"Centre, Beaumont",,49.613033,6.128849,,,0,,,0
200405003,,"Centre, Alsace",,49.596473,6.131123,,,0,,,0
200405004,,"Luxembourg, Monterey Parc",,49.610321,6.123609,,,0,,,0
200417019,,"Kirchberg, Konrad Adenauer",,49.629615,6.157333,,,0,,,0
221004003,,"Reckange/Mess, Wolefskaul",,49.562846,6.017425,,,0,,,0
120201001,,"Esch-sur-Sûre, SEBES",,49.910407,5.922151,,,0,,,0
150602001,,"Lannen, Schoul",,49.788558,5.83934,,,0,,,0
120201002,,"Esch-sur-Sûre, Tunnel",,49.909919,5.936671,,,0,,,0
191104001,,"Steinfort, Al Schmelz",,49.66143,5.915157,,,0,,,0
220501002,,"Aspelt, Gare",,49.520351,6.225794,,,0,,,0
220501001,,"Aspelt, Am Grëndchen",,49.517862,6.233037,,,0,,,0
110308002,,"Lieler, Gässelchen",,50.123731,6.106912,,,0,,,0
220902002,,"Pétange, Athuserstrooss",,49.559966,5.866679,,,0,,,0
110308001,,"Lieler, Beim Biereg",,50.12541,6.108573,,,0,,,0
220902001,,"Pétange, A Rousen",,49.555361,5.875396,,,0,,,0
110820002,,"Troine, Duerf",,50.063781,5.882949,,,0,,,0
220902006,,"Pétange, Gare",,49.554248,5.878814,,,0,,,0
110820003,,"Troine, Route",,50.045415,5.876749,,,0,,,0
220902005,,"Pétange, Cité CFL",,49.558052,5.885445,,,0,,,0
110308004,,"Lieler, Schull",,50.125008,6.110892,,,0,,,0
110820004,,"Troine, Route/Op der Haard",,50.053056,5.877203,,,0,,,0
220902004,,"Pétange, Cactus",,49.554942,5.868882,,,0,,,0
110308003,,"Lieler, Om Knupp",,50.123942,6.104912,,,0,,,0
220902003,,"Pétange, Gemeng",,49.556492,5.877274,,,0,,,0
191104008,,"Steinfort, Um Quai",,49.657892,5.911362,,,0,,,0
161104001,,Kuelbecherhaff,,49.717961,6.062318,,,0,,,0
191104007,,"Steinfort, Schoul",,49.658236,5.913475,,,0,,,0
221401011,,"Schifflange, Ecole Nelly Stein",,49.507394,6.007468,,,0,,,0
220902009,,"Pétange, Kierfecht",,49.553185,5.878426,,,0,,,0
191104006,,"Steinfort, Letzebgerstr.81",,49.659654,5.923474,,,0,,,0
220902008,,"Pétange, Rue Gillardin",,49.558988,5.872772,,,0,,,0
191104005,,"Steinfort, Kolonie",,49.666736,5.919825,,,0,,,0
110820001,,"Troine, Bréck",,50.062204,5.883498,,,0,,,0
191104004,,"Steinfort, Gemeng",,49.659412,5.913359,,,0,,,0
200405034,,"Luxembourg, Fortuna",,49.605109,6.131474,,,0,,,0
200405035,,"Luxembourg, Gare Centrale",,49.600674,6.133645,,,0,,,0
180205002,,"Brouch/Wecker, Gaerleck",,49.731585,6.347445,,,0,,,0
200405032,,"Luxembourg, Gare Centrale Quai 103",,49.599804,6.133032,,,0,,,0
200405033,,"Luxembourg, Gare Centrale Quai 101",,49.601037,6.133056,,,0,,,0
200405038,,"Luxembourg, Ste Zithe",,49.606652,6.126206,,,0,,,0
190605001,,"Nospelt, Beim Gliesener",,49.673811,6.005273,,,0,,,0
200405039,,"Luxembourg, Wallis",,49.603246,6.134338,,,0,,,0
190605002,,"Nospelt, Kräizhiel",,49.672692,6.0114,,,0,,,0
120901003,,"Roullingen, Réimerwee",,49.956903,5.921263,,,0,,,0
200405036,,"Luxembourg, Gare routière",,49.599244,6.133327,,,0,,,0
180205001,,Brouch/Wecker,,49.728959,6.341606,,,0,,,0
200405037,,"Luxembourg, rue Heine",,49.605221,6.130568,,,0,,,0
120901001,,Roullingen-Chalets Scouts,,49.958655,5.925907,,,0,,,0
120901002,,"Roullingen, Duerf",,49.954735,5.923967,,,0,,,0
150201001,,"Horas, Millen",,49.809924,5.917051,,,0,,,0
150201002,,Horas,,49.809257,5.921042,,,0,,,0
200405030,,"Luxembourg/Centre, Royal quai 1",,49.611774,6.126002,,,0,,,0
200405031,,"Luxembourg/Centre, Royal quai 2",,49.611438,6.125842,,,0,,,0
170301001,,"Berdorf, Bif. Heisbich",,49.817185,6.344837,,,0,,,0
220902013,,"Pétange, Maartplaz",,49.556108,5.876054,,,0,,,0
220902012,,"Pétange, Lycée Technique",,49.555223,5.870938,,,0,,,0
220902011,,"Pétange, Lëtzebuergerstrooss",,49.557201,5.881212,,,0,,,0
220902010,,"Pétange, Kräizheck",,49.558757,5.861252,,,0,,,0
190605005,,"Nospelt, Beim Armand",,49.675242,6.008776,,,0,,,0
220902017,,"Pétange, Paschtoueschhaus",,49.55654,5.875736,,,0,,,0
220902016,,"Pétange, Op der Millen",,49.56099,5.872948,,,0,,,0
200405029,,"Luxembourg/Centre, Royal",,49.612544,6.125818,,,0,,,0
190605003,,"Nospelt, Pompjeesbau",,49.673267,6.008953,,,0,,,0
220902015,,"Pétange, Oberst Dässent",,49.553215,5.882877,,,0,,,0
190605004,,"Nospelt, Leck/ G. Kayser",,49.673532,6.013608,,,0,,,0
220902014,,"Pétange, Maison des Jeunes",,49.559317,5.873622,,,0,,,0
210101001,,Assel,,49.55445,6.313525,,,0,,,0
221401001,,"Schifflange, Brill",,49.507402,6.003958,,,0,,,0
170301004,,"Berdorf, Kiosque",,49.821667,6.349625,,,0,,,0
221401003,,"Schifflange, Stadhaus",,49.505897,6.011511,,,0,,,0
170301003,,"Berdorf, Hôtel Perekop",,49.819897,6.358773,,,0,,,0
220902019,,"Pétange, Porte Lamadelaine",,49.55411,5.863763,,,0,,,0
221401002,,"Schifflange, Gare",,49.506497,6.010023,,,0,,,0
170301002,,"Berdorf, Hotel Herber",,49.823478,6.352529,,,0,,,0
220902018,,"Pétange, Prënzebierg",,49.552646,5.885139,,,0,,,0
221401005,,"Schifflange, Huele Wee",,49.505212,6.00901,,,0,,,0
200405023,,"Centre, Martyrs",,49.606538,6.128511,,,0,,,0
221401004,,"Schifflange, Gringe Wee",,49.50753,6.019687,,,0,,,0
200405024,,"Luxembourg/Centre, Michel Rodange",,49.603116,6.124753,,,0,,,0
221401007,,"Schifflange, Niddeschgaass",,49.506273,6.016323,,,0,,,0
221401006,,"Schifflange, Millchen",,49.504016,6.000698,,,0,,,0
200405022,,"Centre, Kasinosgaass",,49.612057,6.131592,,,0,,,0
221401009,,"Schifflange, Stadhaus",,49.506223,6.01196,,,0,,,0
200405027,,"Luxembourg/Centre, Reuter",,49.6126,6.121952,,,0,,,0
221401008,,"Schifflange, Poto",,49.50742,6.027651,,,0,,,0
200405028,,"Centre, Rousegaertchen",,49.605533,6.129359,,,0,,,0
200405025,,"Luxembourg/Centre, Monterey",,49.6105,6.125038,,,0,,,0
200405026,,"Luxembourg/Centre, Paris/Zitha",,49.603841,6.130774,,,0,,,0
180701003,,"Mertert, Eglise",,49.700777,6.480873,,,0,,,0
180701004,,"Mertert, Gare",,49.703139,6.478656,,,0,,,0
8225131,,Beuvillers-Centre,,49.4045124,5.9706261,,,0,,,0
180701005,,"Mertert, Parc",,49.702609,6.477047,,,0,,,0
8225132,,Beuvillers-Centre,,49.4157847,5.9780908,,,0,,,0
180701006,,"Mertert, route Nationale",,49.703874,6.478105,,,0,,,0
200405020,,Hamilius,,49.610975,6.126049,,,0,,,0
180701001,,"Mertert, Beckius",,49.704186,6.481681,,,0,,,0
120405001,,Masseler,,49.929965,6.035003,,,0,,,0
180701002,,"Mertert, Copal",,49.707054,6.486568,,,0,,,0
140501005,,"Eppeldorf, Op Baach",,49.84669,6.24951,,,0,,,0
140501002,,"Eppeldorf, Gaich",,49.84633,6.246483,,,0,,,0
140501001,,"Eppeldorf, Faubourg",,49.843608,6.24853,,,0,,,0
140501004,,"Eppeldorf, Hossebierg",,49.846263,6.264155,,,0,,,0
140501003,,"Eppeldorf, Haaptstrooss",,49.844565,6.247558,,,0,,,0
200417041,,"Kirchberg, Marcel Reuland",,49.634722,6.167479,,,0,,,0
200417040,,"Kirchberg, Hugo Gernsback",,49.633644,6.170852,,,0,,,0
200417043,,"Kirchberg, Marcel Fischbach",,49.632293,6.170044,,,0,,,0
110406001,,"Obereisenbach, Bei der Baach",,50.004655,6.147011,,,0,,,0
8800046,,Ciney,,50.2912725,5.0914343,,,0,,,0
200201007,,"Contern, Weiergewan",,49.596183,6.213851,,,0,,,0
200201005,,"Contern, Kuehne & Nagel",,49.596797,6.215436,,,0,,,0
200201006,,"Contern, Millewee",,49.586863,6.231112,,,0,,,0
200201003,,"Contern, Kiircheplaz",,49.58524,6.227579,,,0,,,0
200201004,,"Contern, Kräizgaass",,49.584768,6.225516,,,0,,,0
200201001,,"Contern, Birewee",,49.586498,6.223384,,,0,,,0
200201002,,"Contern, I.E.E.",,49.59356,6.222623,,,0,,,0
110406002,,"Obereisenbach, Bongertswies",,50.008906,6.142069,,,0,,,0
150303001,,"Ell, Arelerstrooss",,49.760933,5.858971,,,0,,,0
210502002,,"Ellange, Martialis",,49.520285,6.297448,,,0,,,0
210502001,,Ellenger Gare,,49.515593,6.30608,,,0,,,0
150303002,,"Ell, Beim Musikssaul",,49.762928,5.853925,,,0,,,0
150303003,,"Ell, Beim Schreider",,49.763308,5.859275,,,0,,,0
200405045,,"Centre, Place de l'Etoile",,49.613045,6.119558,,,0,,,0
200405046,,"Luxembourg, Gare Rocade",,49.601394,6.136939,,,0,,,0
200405043,,"Luxembourg/Centre, Royal quai 2A",,49.6132,6.125793,,,0,,,0
200405044,,"Luxembourg/Centre, Royal quai 2B",,49.613101,6.125785,,,0,,,0
8800033,,Angleur,,50.6059791,5.582891,,,0,,,0
190401001,,"Dahlem, Um Eck",,49.597911,5.946963,,,0,,,0
190401002,,"Dahlem, Um Pëtz",,49.600868,5.948204,,,0,,,0
200405041,,"Luxembourg/Centre, Royal quai 3",,49.612398,6.12465,,,0,,,0
200405042,,"Luxembourg/Centre, Royal quai 4",,49.612229,6.125117,,,0,,,0
200405040,,"Centre, bd Prince Henri",,49.613103,6.124442,,,0,,,0
200417023,,"Kirchberg, Luxexpo Entrée Sud Quai 1",,49.63432,6.170162,,,0,,,0
150606006,,"Redange, Noojhemerstrooss",,49.767154,5.878417,,,0,,,0
200417022,,"Kirchberg, Léon Thyes",,49.637289,6.165017,,,0,,,0
150606007,,"Redange, Osperstrooss",,49.765004,5.889444,,,0,,,0
110824001,,Boevange,,50.048398,5.929505,,,0,,,0
200417025,,"Kirchberg, Mathias Tresch",,49.637525,6.169173,,,0,,,0
150606004,,"Redange, Gemeng",,49.764363,5.88868,,,0,,,0
200417024,,"Kirchberg, Marguerites",,49.623681,6.160767,,,0,,,0
150606005,,"Redange, Lycée Atert",,49.76939,5.898692,,,0,,,0
200417027,,"Kirchberg, Niedergrunewald",,49.620649,6.142138,,,0,,,0
150606002,,"Redange, Centre Médical",,49.768253,5.896876,,,0,,,0
200417026,,"Kirchberg, Muguets",,49.626582,6.163866,,,0,,,0
150606003,,"Redange, Gare",,49.764584,5.882193,,,0,,,0
200417029,,"Kirchberg, Parlement Européen",,49.620056,6.146161,,,0,,,0
200417028,,"Kirchberg, Parking Foire",,49.637132,6.173711,,,0,,,0
150606001,,"Redange/Attert, Bian",,49.764019,5.888299,,,0,,,0
221102001,,"Bivange, Edward Steichen",,49.546077,6.137783,,,0,,,0
200417021,,"Kirchberg, Léon Hengen",,49.623891,6.149579,,,0,,,0
150606008,,"Redange, Schleisschen",,49.762859,5.894998,,,0,,,0
200417020,,"Kirchberg, Labours",,49.629161,6.167788,,,0,,,0
150606009,,"Redange, Schock",,49.765903,5.895443,,,0,,,0
140702003,,"Warken, Rue de Burden",,49.857755,6.092613,,,0,,,0
140702002,,"Warken, Café Kaell",,49.854771,6.092333,,,0,,,0
140702001,,"Warken, Bourschterbaach",,49.857769,6.088479,,,0,,,0
221102002,,"Bivange, Schoul",,49.541564,6.13607,,,0,,,0
160907003,,"Reckange/Mersch, Hosbich",,49.751336,6.076102,,,0,,,0
160404001,,"Schoos, Hiervel",,49.751241,6.170011,,,0,,,0
160907004,,"Reckange/Mersch, Hunnebourerstr.",,49.745964,6.084616,,,0,,,0
150606010,,"Redange, Solupla",,49.75993,5.894144,,,0,,,0
160907001,,"Reckange/Mersch, Barriär",,49.748242,6.052352,,,0,,,0
160907002,,"Reckange/Mersch, Beim Bur",,49.752181,6.085327,,,0,,,0
140702008,,"Warken, Rue de Welscheid",,49.859644,6.083983,,,0,,,0
140702007,,"Warken, Waarkdall 6",,49.860668,6.083239,,,0,,,0
140702005,,"Warken, L.T.P.S.",,49.85782,6.086959,,,0,,,0
140702004,,"Warken, Waarkdall",,49.860175,6.085092,,,0,,,0
200417034,,"Kirchberg, Rehazenter",,49.628542,6.173766,,,0,,,0
200417033,,"Kirchberg, Poutty Stein",,49.635586,6.168953,,,0,,,0
200417036,,"Kirchberg, Réimerwee",,49.632347,6.167465,,,0,,,0
200417035,,"Kirchberg, Rehazenter Parking",,49.627599,6.171618,,,0,,,0
200417038,,"Kirchberg, Sichegronn",,49.628393,6.151532,,,0,,,0
200417037,,"Kirchberg, Schmatt",,49.628354,6.149249,,,0,,,0
160907005,,"Reckange/Mersch, Schoul",,49.747469,6.080083,,,0,,,0
200417039,,"Luxembourg, Avalon",,49.632638,6.161367,,,0,,,0
200417030,,"Kirchberg, Paul Noesen",,49.62738,6.143295,,,0,,,0
200417032,,"Kirchberg, Pierre Werner",,49.631651,6.177672,,,0,,,0
200417031,,"Kirchberg, Philharmonie / MUDAM",,49.619452,6.142831,,,0,,,0
170206002,,"Zittig, Moulin",,49.735869,6.343616,,,0,,,0
210105002,,Scheierbierg,,49.532667,6.3379,,,0,,,0
210105001,,Emeringerhaff,,49.539539,6.323412,,,0,,,0
8800057,,Gembloux,,50.5495598,4.750976,,,0,,,0
150103001,,"Hovelange, Bei Bitzesch",,49.722809,5.910906,,,0,,,0
150103002,,"Hovelange, Halt",,49.724969,5.900193,,,0,,,0
170206001,,"Zittig, Kapell",,49.744713,6.342855,,,0,,,0
141201001,,"Bigelbach, Kiirch",,49.860283,6.286922,,,0,,,0
190703004,,"Koerich, SES",,49.680636,5.944569,,,0,,,0
190703002,,"Koerich, Gemeng",,49.670008,5.949228,,,0,,,0
190703003,,"Koerich, Weidewee",,49.670082,5.952744,,,0,,,0
190703001,,"Koerich, Fuurt",,49.670575,5.942441,,,0,,,0
200503002,,"Hostert, Kiirfech",,49.655817,6.232465,,,0,,,0
200503003,,"Hostert, Am Bruch",,49.657455,6.234021,,,0,,,0
8225181,,Landres-Cités,,49.4487026,5.9962457,,,0,,,0
200503001,,"Hostert, Charlys Gare",,49.658658,6.231639,,,0,,,0
150803001,,"Schandel, Kiirch",,49.791821,5.974942,,,0,,,0
150803002,,"Schandel, Kreizung",,49.790237,5.971831,,,0,,,0
8800005,,Bruxelles-Luxembourg,,50.7562316,4.4502189,,,0,,,0
8800003,,Bruxelles-Central,,50.8182897,4.3619237,,,0,,,0
8800002,,Bruxelles-Nord,,50.8027552,4.3841771,,,0,,,0
180402001,,Potaschbierg,,49.677517,6.399687,,,0,,,0
180402002,,"Potaschbierg, Z.I.",,49.679048,6.394586,,,0,,,0
121006001,,"Pommerlach, Theis",,49.96008,5.859924,,,0,,,0
8225191,,Landres-Cimetière,,49.4747893,6.0036876,,,0,,,0
121006003,,Pommerlach (Knauf),,49.963367,5.859055,,,0,,,0
121006002,,"Pommerlach, Trëntelhaff",,49.95907,5.860199,,,0,,,0
200303001,,"Hesperange, Am Keller",,49.573414,6.157336,,,0,,,0
200303002,,"Hesperange, Cité Um Schlass",,49.57312,6.143948,,,0,,,0
200303003,,"Hesperange, Holleschbierg",,49.577483,6.162578,,,0,,,0
220402099,,"Esch/Alzette, Schoarfen Eck",,49.503656,5.972773,,,0,,,0
220402098,,"Esch/Alzette, Schluechthaus",,49.509967,5.976017,,,0,,,0
220402097,,"Esch/Alzette, Bd Berwart",,49.49732,5.987833,,,0,,,0
200303004,,"Hesperange, Itziger Eck",,49.574426,6.160058,,,0,,,0
200303005,,"Hesperange, Sprëtzenhaus",,49.571948,6.1537,,,0,,,0
200303006,,"Hesperange, Urbengsschlass",,49.571429,6.160024,,,0,,,0
200303007,,"Hesperange, Wollefsmillen",,49.577095,6.153746,,,0,,,0
220402092,,"Esch/Alzette, Rue Henri Dunant",,49.5035,5.981941,,,0,,,0
220402091,,"Esch/Alzette, Rue du X Sep.",,49.493511,5.979421,,,0,,,0
220402090,,"Esch/Alzette, Rue du Laminoir",,49.50108,5.968511,,,0,,,0
220402096,,"Esch/Alzette, Rue Victor Hugo",,49.497028,5.978693,,,0,,,0
220402095,,"Esch/Alzette, Rue Renaudin",,49.487803,5.976499,,,0,,,0
220402093,,"Esch/Alzette, Rue M. Reuland",,49.505088,5.969051,,,0,,,0
140304001,,"Goebelsmühle, Gare",,49.921179,6.053433,,,0,,,0
210302001,,"Filsdorf, Op der Plaz",,49.534275,6.247868,,,0,,,0
120507001,,Tadler,,49.911201,5.992495,,,0,,,0
210302002,,"Filsdorf, Wäschbour",,49.533214,6.245647,,,0,,,0
140304003,,"Goebelsmühle, Op der Gafel",,49.920471,6.056389,,,0,,,0
220402089,,"Esch/Alzette, Rue Canal",,49.493969,5.975249,,,0,,,0
220402088,,"Esch/Alzette, Rue Dicks",,49.492784,5.978789,,,0,,,0
160102004,,"Roost, Luxlait",,49.779229,6.08412,,,0,,,0
220402087,,"Esch/Alzette, Rue des Mines",,49.485531,5.975976,,,0,,,0
220402086,,"Esch/Alzette, R. de Schiffl.",,49.496491,5.989514,,,0,,,0
160102001,,"Roost, Mold Plant",,49.793858,6.098819,,,0,,,0
190503001,,Kreizerbuch,,49.701601,5.915192,,,0,,,0
160102003,,"Roost, Wire Plant",,49.785177,6.085235,,,0,,,0
110603001,,Goedange,,50.147308,6.012084,,,0,,,0
160102002,,Rouscht,,49.786588,6.092321,,,0,,,0
220402083,,"Esch/Alzette,  Barbourg",,49.486384,5.972817,,,0,,,0
220402082,,"Esch/Alzette, Rue d'Audun",,49.48927,5.977583,,,0,,,0
170706002,,"Osweiler, Haaptstrooss",,49.786709,6.442876,,,0,,,0
170706001,,"Osweiler, Duerfplaz",,49.785362,6.440543,,,0,,,0
150512006,,"Rambrouch, Gare",,49.830357,5.848937,,,0,,,0
220402077,,"Esch/Alzette, Porte de France",,49.503309,5.945538,,,0,,,0
220402076,,"Esch/Alzette, Bd Aloyse Meyer",,49.508028,5.992743,,,0,,,0
220402075,,"Esch/Alzette, Tramschapp",,49.507597,5.957373,,,0,,,0
8800014,,Rivage,,50.5066409,5.6702252,,,0,,,0
150512005,,"Rambrouch, Schlass",,49.831008,5.841774,,,0,,,0
150512004,,"Rambrouch, Riesenknäppchen",,49.824976,5.852847,,,0,,,0
220402079,,"Esch/Alzette, Raemerich",,49.509046,5.955307,,,0,,,0
220402070,,"Esch/Alzette, Peckeschhaff",,49.494298,5.968254,,,0,,,0
170403002,,"Scheidgen, Hotschent",,49.783162,6.354256,,,0,,,0
170403001,,"Scheidgen, Biweschland",,49.785352,6.369434,,,0,,,0
150512001,,"Rambrouch, Am Brill",,49.828543,5.85071,,,0,,,0
191002001,,"Septfontaines, Schoul",,49.699285,5.964731,,,0,,,0
170403003,,"Scheidgen, Veräinsbau",,49.781652,6.359048,,,0,,,0
191002002,,"Septfontaines, Simmerfarm",,49.695646,5.987288,,,0,,,0
220402072,,"Esch/Alzette, Place N. Metz",,49.496281,5.986626,,,0,,,0
110812002,,"Lentzweiler, Z.I.",,50.067917,5.981132,,,0,,,0
220402071,,"Esch/Alzette, Place Benelux",,49.502434,5.972143,,,0,,,0
110812001,,Lentzweiler,,50.069529,5.974978,,,0,,,0
130203005,,"Brandenbourg, Vereinsbau",,49.911292,6.139265,,,0,,,0
130203003,,"Brandenbourg, Laangwiss",,49.908885,6.141943,,,0,,,0
130203004,,"Brandenbourg, Terminus",,49.910452,6.124952,,,0,,,0
130203001,,"Brandenbourg, Bakes",,49.911622,6.136599,,,0,,,0
130203002,,"Brandenbourg, Kapell",,49.910931,6.139927,,,0,,,0
170604001,,"Herborn, Kiircheplaz",,49.747935,6.428187,,,0,,,0
220301013,,"Dudelange, Butschebuerg",,49.491313,6.068058,,,0,,,0
220301014,,"Dudelange, Casino",,49.471381,6.083883,,,0,,,0
220301011,,"Dudelange, Rue Curie",,49.491593,6.098757,,,0,,,0
220301012,,"Dudelange-Burange, Gare",,49.49267,6.086498,,,0,,,0
220301010,,"Dudelange, Rue Jean Simon",,49.488377,6.085717,,,0,,,0
220301019,,"Dudelange, Route de Kayl",,49.486437,6.072686,,,0,,,0
170501001,,"Echternach, Alte Grenzbrücke",,49.812751,6.424974,,,0,,,0
220301017,,"Dudelange, Jugendhaus",,49.483224,6.086866,,,0,,,0
170203002,,"Hemstal, Kiirch",,49.739534,6.333977,,,0,,,0
220301018,,"Dudelange, Dennewald",,49.491427,6.087884,,,0,,,0
170203001,,"Hemstal, Am Ieweschten Duerf",,49.741256,6.338047,,,0,,,0
170501003,,"Echternach, Belle Vue",,49.810714,6.415879,,,0,,,0
220301015,,"Dudelange-Centre, Gare",,49.48053,6.082455,,,0,,,0
170501002,,"Echternach, Bel Air",,49.819995,6.395279,,,0,,,0
220301016,,"Dudelange, Centre Sportif",,49.484384,6.090802,,,0,,,0
170501005,,"Echternach, Centre Ville",,49.811709,6.418954,,,0,,,0
170501004,,"Echternach, Centre de secours",,49.808241,6.411104,,,0,,,0
170501007,,"Echternach, Fielsmillen",,49.818166,6.406,,,0,,,0
170501006,,"Echternach, Charly's Halt",,49.810485,6.415697,,,0,,,0
8700151,,MIMES,,43.8324991,4.3660155,,,0,,,0
170501009,,"Echternach, Lycee",,49.813238,6.424225,,,0,,,0
8700152,,LYON PART DIEU,,45.7605303,4.8600922,,,0,,,0
170501008,,"Echternach, Gare",,49.815848,6.416982,,,0,,,0
200204004,,"Oetrange, Prisong",,49.607531,6.241791,,,0,,,0
200204005,,"Oetrange, Staefeld",,49.602636,6.267869,,,0,,,0
200204006,,"Oetrange, Trengen Knapp",,49.599714,6.256932,,,0,,,0
220301024,,"Dudelange, Gemeng",,49.4787,6.085146,,,0,,,0
220301025,,"Dudelange, Giebel",,49.501303,6.078512,,,0,,,0
220301022,,"Dudelange, Gare",,49.48326,6.082956,,,0,,,0
160802004,,"Blaschette, Rue de Fischbach",,49.703164,6.167036,,,0,,,0
220301023,,"Dudelange, Gare-Usines",,49.472439,6.079098,,,0,,,0
160802003,,"Blaschette, r.de Wormeldange",,49.699496,6.16639,,,0,,,0
110804002,,"Brachtenbach, Maison 3",,50.019289,5.903577,,,0,,,0
220301020,,"Dudelange, Rue Gaffelt",,49.481976,6.080188,,,0,,,0
160802002,,"Blaschette, Kreizung",,49.702242,6.164662,,,0,,,0
160802001,,"Blaschette, Op der Kräizung",,49.70266,6.171782,,,0,,,0
110804001,,Brachtenbach,,50.020868,5.909466,,,0,,,0
170501010,,"Echternach, Manertchen",,49.798862,6.454271,,,0,,,0
120103001,,"Baschleiden, Flebour",,49.898524,5.811445,,,0,,,0
170501012,,"Echternach, Nonnenmillen/Lac",,49.805317,6.403448,,,0,,,0
220301028,,"Dudelange, Spidol",,49.470458,6.087969,,,0,,,0
120103002,,Hareler Poteau,,49.90807,5.80853,,,0,,,0
170501011,,"Echternach, Morgenstern",,49.809998,6.424939,,,0,,,0
220301029,,"Dudelange, Kiirch",,49.479762,6.086588,,,0,,,0
170501014,,"Echternach, rte.d'Osweiler",,49.807503,6.429659,,,0,,,0
220301026,,"Dudelange, rue Ribeschpont",,49.493238,6.084779,,,0,,,0
170501013,,"Echternach, Remparts",,49.810587,6.418277,,,0,,,0
220301027,,"Dudelange, Greisendall",,49.463328,6.082056,,,0,,,0
110701003,,"Beiler, Beim Krécks",,50.165113,6.090043,,,0,,,0
170501015,,"Echternach, Ste Croix",,49.80878,6.43005,,,0,,,0
110701002,,"Beiler, Op der Halt",,50.164178,6.087902,,,0,,,0
110701001,,"Beiler, Bei der aler Schull",,50.160054,6.088825,,,0,,,0
200204001,,"Oetrange, Gare",,49.602602,6.258472,,,0,,,0
200204002,,"Oetrange, Kurzebierg",,49.594833,6.260168,,,0,,,0
200204003,,"Oetrange, Éiter",,49.601366,6.26023,,,0,,,0
110701004,,"Beiler, Kaesfurt",,50.153367,6.08083,,,0,,,0
8700133,,St-Louis(Haut Rhin),,47.6230272,7.5185089,,,0,,,0
200421005,,"Muhlenbach, Sept Arpents",,49.633081,6.117074,,,0,,,0
160904006,,"Mersch, Uewermiersch",,49.743013,6.096427,,,0,,,0
200421006,,"Muhlenbach, Siwemuergen",,49.629212,6.117067,,,0,,,0
160904007,,"Mersch, Lycée Ermesinde",,49.755281,6.111024,,,0,,,0
160904008,,"Mersch, Mierscherbierg",,49.755379,6.099826,,,0,,,0
160904009,,"Mersch, Beim Klouschter",,49.75331,6.103088,,,0,,,0
120904001,,Lameschmillen,,49.9633,5.904036,,,0,,,0
200421001,,"Millebaach, Kierch",,49.631139,6.117493,,,0,,,0
160904002,,"Mersch, Lankheck",,49.744851,6.096886,,,0,,,0
120503001,,Heischtergronn,,49.904648,5.955837,,,0,,,0
120904002,,"Paradiso, Gare",,49.965369,5.953261,,,0,,,0
200421002,,"Millebaach, Kierch/CAPEL",,49.630815,6.118565,,,0,,,0
160904003,,"Mersch, Maartplaz",,49.747724,6.103837,,,0,,,0
200421003,,"Muhlenbach, Eecher Schmelz",,49.627895,6.122324,,,0,,,0
160904004,,"Mersch, Reckenerstrooss",,49.751883,6.097813,,,0,,,0
220804016,,"Pontpierre, Pafenheck",,49.534934,6.017273,,,0,,,0
200421004,,"Muhlenbach, Peiffeschbierg",,49.628388,6.113237,,,0,,,0
160904005,,"Mersch, Stäereplaz",,49.750507,6.106476,,,0,,,0
220804015,,"Pontpierre, Theis",,49.539797,6.034216,,,0,,,0
220804014,,"Pontpierre, Steewee",,49.531187,6.032471,,,0,,,0
220804013,,"Pontpierre, Spatzefeld",,49.539728,6.033999,,,0,,,0
220804012,,"Pontpierre, Schwoburg",,49.537609,6.031017,,,0,,,0
220804011,,"Pontpierre, Schmunenwies",,49.530913,6.032653,,,0,,,0
220804010,,"Pontpierre, Paschtoueschhaus",,49.534753,6.030485,,,0,,,0
150507001,,"Holtz, Molkerei",,49.806407,5.790913,,,0,,,0
150507002,,"Holtz, Um Bur",,49.809331,5.794807,,,0,,,0
141204002,,"Wallendorf, Cité",,49.869662,6.279479,,,0,,,0
141204001,,"Wallendorf, Bei der Bréck",,49.873356,6.290449,,,0,,,0
151006002,,"Wahl, Kinnikshaff",,49.840518,5.910514,,,0,,,0
151006001,,"Wahl, Gemeng",,49.835479,5.904061,,,0,,,0
220301002,,"Dudelange, Rue Angeldall",,49.488728,6.070077,,,0,,,0
220301003,,"Dudelange, Rue de Hellange",,49.492942,6.094092,,,0,,,0
220301001,,"Dudelange, Altersheem",,49.489543,6.092705,,,0,,,0
180303002,,"Flaxweiler, Op der Bréck",,49.666424,6.342648,,,0,,,0
110301001,,"Fischbach/Heinerscheid, Bei Prëntzen",,50.074008,6.070964,,,0,,,0
180303001,,"Flaxweiler, Bei Knuppeneck",,49.66506,6.343984,,,0,,,0
220301008,,"Dudelange, Bouledrome P&R",,49.471227,6.077804,,,0,,,0
220301009,,"Dudelange, Breiningerbierg",,49.481078,6.090238,,,0,,,0
220301006,,"Dudelange, Birenger Barrière",,49.493208,6.08572,,,0,,,0
220301007,,"Dudelange, Am Boujel",,49.49109,6.096992,,,0,,,0
220301004,,"Dudelange, Rue Belair",,49.478509,6.093621,,,0,,,0
220301005,,"Dudelange, Biereng",,49.4927,6.089121,,,0,,,0
110403003,,"Hosingen, Z.A.E.R.",,50.005853,6.087367,,,0,,,0
110403004,,"Hosingen, Parc Housen",,49.993131,6.098434,,,0,,,0
110403001,,"Hosingen, Eesberwee",,50.012693,6.090708,,,0,,,0
160401001,,"Angelsberg, Paafendall",,49.762593,6.160031,,,0,,,0
110403002,,"Hosingen, Ewescht Duerf",,50.016718,6.091931,,,0,,,0
110816001,,Rumlange,,50.078879,5.974418,,,0,,,0
190302007,,"Dippach, Um Pull",,49.587546,5.985667,,,0,,,0
220301050,,"Dudelange, Schmelz",,49.468627,6.082058,,,0,,,0
190302008,,Dippach-Rond-Point,,49.586389,5.971706,,,0,,,0
190302005,,"Dippach, Op der Kopp",,49.587393,5.971907,,,0,,,0
190302006,,"Dippach, Um Däich",,49.58758,5.988363,,,0,,,0
220301057,,"Dudelange, Waldschoul",,49.48365,6.10203,,,0,,,0
220301058,,"Dudelange, Rue Jean Origer",,49.484273,6.095683,,,0,,,0
220301055,,"Dudelange, Rue Tattenberg",,49.478129,6.079616,,,0,,,0
220301056,,"Dudelange, Centre Culturel / CNA",,49.474569,6.083997,,,0,,,0
220301053,,"Dudelange, Skaterpark P&R",,49.468982,6.079746,,,0,,,0
190302003,,Dippëcherbierg,,49.588943,5.993358,,,0,,,0
220301054,,"Dudelange, Soibelkaul",,49.495028,6.085474,,,0,,,0
190302004,,"Dippach, Op der Haard",,49.578917,5.991166,,,0,,,0
220301051,,"Dudelange, Schnautzelach",,49.474803,6.082948,,,0,,,0
190302001,,"Dippach, Bei der Crèche",,49.58746,5.983735,,,0,,,0
220301052,,"Dudelange, Centre Sportif",,49.485546,6.088703,,,0,,,0
190302002,,"Dippach, Bei der Kapell",,49.587791,5.980241,,,0,,,0
110104001,,"Urspelt, Knupp",,50.076738,6.04421,,,0,,,0
110104002,,"Urspelt, Schlass",,50.074596,6.045208,,,0,,,0
220301059,,"Dudelange, Maison de retraite",,49.489387,6.09509,,,0,,,0
8800088,,Trois-Ponts,,50.3147223,5.8368786,,,0,,,0
220301060,,Dudelange LTNB Annexe Frankelach,,49.472287,6.073088,,,0,,,0
8704943,,VALENCE TGV RHONE-ALPES SUD,,44.991855,4.9783743,,,0,,,0
220301061,,"Dudelange, Rue du Parc",,49.486803,6.090755,,,0,,,0
220804009,,"Pontpierre, Op der Bréck",,49.53544,6.026075,,,0,,,0
220804008,,"Pontpierre, Koppbierg",,49.53631,6.028082,,,0,,,0
220804007,,"Pontpierre, Kierch",,49.533123,6.029727,,,0,,,0
140202001,,Bleesbréck,,49.871897,6.189199,,,0,,,0
220804006,,"Pontpierre, Pompjeesbau",,49.536631,6.026224,,,0,,,0
220804005,,"Pontpierre, Hau",,49.54102,6.035967,,,0,,,0
220804004,,"Pontpierre, Freschpesch",,49.533711,6.02882,,,0,,,0
210601001,,"Remerschen, Al Schoul",,49.491255,6.352302,,,0,,,0
220301068,,"Dudelange, Rue des Minières",,49.472952,6.07592,,,0,,,0
220804003,,"Pontpierre, Pompjeesbau",,49.536522,6.026175,,,0,,,0
220301069,,"Dudelange, Rue Fany Schumacher",,49.487936,6.092138,,,0,,,0
220804002,,"Pontpierre, Bredel",,49.54097,6.035776,,,0,,,0
220301066,,"Dudelange, Rue des Bobineurs",,49.496017,6.075457,,,0,,,0
220804001,,"Pontpierre, Beim Kueb",,49.537437,6.030626,,,0,,,0
220301067,,"Dudelange, Rue de Lauenburg",,49.4966,6.078944,,,0,,,0
220301064,,"Dudelange, Route de Burange",,49.48656,6.085038,,,0,,,0
210601004,,"Remerschen, Nei Schoul",,49.492275,6.352854,,,0,,,0
220301065,,"Dudelange, Rue de la Fontaine",,49.479763,6.080913,,,0,,,0
210601003,,"Remerschen, Kiosk",,49.488214,6.351099,,,0,,,0
220301062,,"Dudelange, L.N.B. Annexe Alliance",,49.472382,6.073317,,,0,,,0
210601002,,"Remerschen, Ennen am Doref",,49.486349,6.354513,,,0,,,0
220301063,,"Dudelange, Lenkeschléi",,49.481142,6.101764,,,0,,,0
220402132,,"Esch, Nonnewisen",,49.506614,5.97889,,,0,,,0
220402131,,"Esch/Alzette, Rue M. Müller-Tesch",,49.502039,5.967347,,,0,,,0
220402130,,"Esch/Alzette, Rue Michel Lentz",,49.499927,5.969494,,,0,,,0
160502001,,Reuland,,49.752105,6.260906,,,0,,,0
160904001,,"Mersch, Gare",,49.751989,6.110345,,,0,,,0
500000100,,"Irrhausen, Gemeindehaus",,50.079616,6.212025,,,0,,,0
500000101,,"Arzfeld, Kapelle",,50.088535,6.273895,,,0,,,0
161005002,,"Schrondweiler, Um Woes",,49.804311,6.154628,,,0,,,0
161005001,,"Schrondweiler, Schoul",,49.805782,6.158114,,,0,,,0
500000104,,"Pronsfeld, Kirche",,50.159549,6.342669,,,0,,,0
220301035,,"Dudelange, Rue de la Paix",,49.484193,6.097496,,,0,,,0
500000105,,"Prüm, Hahnplatz",,50.207507,6.420586,,,0,,,0
220301036,,"Dudelange, Niddeschgaass",,49.481124,6.084588,,,0,,,0
500000102,,"Lichtenborn, Dorfplatz",,50.108827,6.291458,,,0,,,0
220301033,,"Dudelange, Rue Antoine Zinnen",,49.478496,6.087768,,,0,,,0
220402128,,"Esch/Alzette, Rue Guillaume Capus",,49.508343,5.975495,,,0,,,0
500000103,,"Lünebach, Brücke",,50.138414,6.346794,,,0,,,0
220301034,,"Dudelange, Lycée Nic Biever",,49.483128,6.091276,,,0,,,0
220402127,,"Esch/Alzette, Lycée Esch",,49.509266,5.965048,,,0,,,0
500000108,,"Merzig, Saarwiesenring",,49.443947,6.62668,,,0,,,0
220301031,,"Dudelange, rue Aloyse Kayser",,49.484714,6.074984,,,0,,,0
500000109,,"Wittlich, Bahnhof",,49.973376,6.944689,,,0,,,0
220301032,,"Dudelange, Kräizbierg",,49.479153,6.09959,,,0,,,0
500000106,,"Zewen, Kantstraße",,49.719036,6.581159,,,0,,,0
500000107,,"Zewen, Im Siebenborn",,49.721147,6.586632,,,0,,,0
220301030,,"Dudelange, Kierfecht",,49.483243,6.080485,,,0,,,0
220104002,,"Huncherange, Kreizung",,49.517684,6.064574,,,0,,,0
220402122,,"Esch/Alzette, Passerelle",,49.492819,5.983593,,,0,,,0
220104001,,"Huncherange, Kiirch",,49.516337,6.064336,,,0,,,0
220104004,,"Huncherange, Rue d'Esch 1",,49.518279,6.069582,,,0,,,0
220402120,,"Esch/Alzette, Cité des Sciences",,49.50563,5.94828,,,0,,,0
220104003,,"Huncherange, R. Résistance",,49.517695,6.058659,,,0,,,0
220301039,,"Dudelange, Porte d'Italie",,49.474954,6.080012,,,0,,,0
220402126,,"Esch/Alzette, Cité Jos Brebsom",,49.502423,5.964864,,,0,,,0
220402125,,"Esch/Alzette, Bd Pierre Krier",,49.502318,5.964967,,,0,,,0
220301037,,"Dudelange, Nudelsfabrik",,49.485065,6.082089,,,0,,,0
220402124,,"Esch/Alzette, Rue M. Dauphin",,49.508188,5.970614,,,0,,,0
220301038,,"Dudelange, Rue de la Rivière",,49.476415,6.084453,,,0,,,0
220402123,,"Esch/Alzette, Auberge de Jeunesse",,49.494071,5.984662,,,0,,,0
201003004,,"Helsem, Tricentenaire",,49.662371,6.133262,,,0,,,0
201003001,,"Helmsange, Barriär",,49.659964,6.135621,,,0,,,0
201003002,,"Helsem, Mercatoris",,49.66595,6.134285,,,0,,,0
201003003,,"Heisdorf, Millewee",,49.668814,6.135156,,,0,,,0
180106001,,"Roodt/Syre, Barriär",,49.666127,6.303759,,,0,,,0
180106003,,"Roodt/Syre, Gare",,49.666383,6.302774,,,0,,,0
180106002,,"Roodt/Syre, Campus scolaire",,49.663513,6.29811,,,0,,,0
180106005,,"Roodt/Syre, Rothoicht",,49.659201,6.287235,,,0,,,0
180106004,,"Roodt/Syre, Hunnemillen",,49.666175,6.305045,,,0,,,0
180106007,,"Roodt/Syre, Bowengsbierg",,49.666593,6.301363,,,0,,,0
220301046,,"Dudelange, Rue Alexandre Fleming",,49.490975,6.089195,,,0,,,0
220402119,,"Esch/Alzette, Place Lodève",,49.50262,5.979923,,,0,,,0
180106006,,"Roodt/Syre, Z.I. Rothoicht",,49.657298,6.292413,,,0,,,0
220301047,,"Dudelange, Rue Pasteur",,49.491565,6.094049,,,0,,,0
220402118,,"Esch/Alzette, Av. de la Gare",,49.493479,5.983704,,,0,,,0
220301044,,"Dudelange, Rue des Lamineurs",,49.49596,6.081386,,,0,,,0
220402117,,"Esch/Alzette, Rue A. Useldinger",,49.505213,5.972455,,,0,,,0
180106008,,"Roodt/Syre, Rue d'Olingen",,49.670462,6.302937,,,0,,,0
220301045,,"Dudelange, Rue des Mouleurs",,49.494851,6.081313,,,0,,,0
220402116,,"Esch/Alzette, Centre hospitalier E. Mayrisch",,49.502164,5.982452,,,0,,,0
220301042,,"Dudelange, Route de Luxembourg",,49.485981,6.081703,,,0,,,0
220301043,,"Dudelange, Route de Thionville",,49.477617,6.082504,,,0,,,0
220301040,,"Dudelange, Pullewee",,49.486113,6.091224,,,0,,,0
220301041,,"Dudelange, Rue Ribeschpont",,49.493252,6.081754,,,0,,,0
220402111,,"Esch/Alzette, Wäschbour",,49.486887,5.977964,,,0,,,0
220402115,,"Esch/Alzette, Zare Ouest 2",,49.519504,5.968809,,,0,,,0
160204001,,Finsterthal,,49.753978,6.035633,,,0,,,0
220402114,,"Esch/Alzette, Zare Ouest 1",,49.51701,5.97011,,,0,,,0
220301048,,"Dudelange, Scherr",,49.48796,6.062845,,,0,,,0
220402113,,"Esch/Alzette, Zare Est",,49.51985,5.97343,,,0,,,0
220301049,,"Dudelange, Schlackenmillen",,49.465601,6.08159,,,0,,,0
220402112,,"Esch/Alzette, Wobrécken",,49.50304,5.976389,,,0,,,0
150107002,,"Oberpallen, Schnuddelbierg",,49.729734,5.843471,,,0,,,0
150107001,,"Oberpallen, Bréck",,49.73003,5.842438,,,0,,,0
221303002,,"Sanem, Kierch",,49.547707,5.927862,,,0,,,0
221303001,,"Sanem, Cité Tornaco",,49.544816,5.921987,,,0,,,0
140902001,,"Hoscheid-Dickt, Um Pëtz",,49.970308,6.089459,,,0,,,0
221303004,,"Sanem, Op Lohr",,49.552315,5.927918,,,0,,,0
221303003,,"Sanem, Niederkuererstrooss",,49.54089,5.913096,,,0,,,0
140902002,,"Hoscheid-Dickt, Um Wald",,49.976873,6.090806,,,0,,,0
200413003,,"Grund, Parking St. Ulric",,49.607092,6.136729,,,0,,,0
220402108,,"Esch/Alzette, Burgronn",,49.489179,5.995832,,,0,,,0
220402107,,"Esch/Alzette, Rue de l'Alzette",,49.494852,5.982556,,,0,,,0
200413001,,"Grund, Stadgronn-Bréck",,49.608447,6.135473,,,0,,,0
220402106,,"Esch/Alzette, Tramschapp",,49.506481,5.958713,,,0,,,0
220402105,,"Esch/Alzette, Rue des Tramways",,49.504046,5.966352,,,0,,,0
220402109,,"Esch/Alzette, Iewescht Homescht",,49.497118,5.949238,,,0,,,0
220402100,,"Esch/Alzette, Piscine municipale",,49.500233,5.977059,,,0,,,0
220402104,,"Esch/Alzette, Place Stalingrad",,49.495353,5.972125,,,0,,,0
220402102,,"Esch/Alzette, Rue de l'Eglise",,49.497331,5.982735,,,0,,,0
220402101,,"Esch/Alzette, Sportshal",,49.51023,5.984346,,,0,,,0
150515003,,"Wolwelange, Spëtzt",,49.827985,5.767747,,,0,,,0
150515004,,Wolwëner Halt,,49.827075,5.773189,,,0,,,0
221303009,,"Sanem, Zentrum",,49.548225,5.929724,,,0,,,0
150515001,,"Wolwelange, Ennescht Duerf",,49.82715,5.757525,,,0,,,0
150704002,,"Saeul, Kiëm",,49.726443,5.987004,,,0,,,0
150515002,,"Wolwelange, Kiosk",,49.827537,5.761379,,,0,,,0
150704001,,"Saeul, Beim Sand",,49.726568,5.985914,,,0,,,0
150704004,,"Saeul, Raiffeisen",,49.72652,5.98686,,,0,,,0
150704003,,"Saeul, Post",,49.726616,5.986036,,,0,,,0
221303005,,"Sanem, Place Tornaco",,49.546929,5.926335,,,0,,,0
221303008,,"Sanem, Schoul",,49.547234,5.926979,,,0,,,0
221303007,,"Sanem, Schlass",,49.54408,5.931532,,,0,,,0
110504001,,Roder (Ruadder),,50.05509,6.082065,,,0,,,0
500000111,,"Bitburg, Borenweg",,49.971875,6.525223,,,0,,,0
110607002,,"Wilwerdange, Schoul",,50.138428,6.021511,,,0,,,0
500000112,,"Schweich, B53",,49.8132722,6.7461688,,,0,,,0
110607001,,"Wilwerdange, Kiirch",,50.139232,6.022329,,,0,,,0
121002001,,"Bohey, Um Weiher",,49.97268,5.842225,,,0,,,0
500000110,,Schweich (Deutschland),,49.831063,6.740339,,,0,,,0
110607003,,"Wilwerdange, Station",,50.142432,6.017343,,,0,,,0
500000115,,"Igel, Kirche",,49.709202,6.553667,,,0,,,0
500000113,,"Dahlem, rue de Hivange",,49.5977385,5.9454776,,,0,,,0
500000114,,"Maldingen, Kirche",,50.232588,6.029192,,,0,,,0
200401001,,"Bambësch, Centre Sportif",,49.632035,6.110501,,,0,,,0
211002001,,"Schwebsingen, Centre",,49.511865,6.356591,,,0,,,0
211002002,,"Schwebsingen, Op der Hoh",,49.5082,6.356056,,,0,,,0
161001003,,"Cruchten, Heemeschbaach",,49.801342,6.141835,,,0,,,0
220301071,,"Dudelange, Rue Jacques Thiel",,49.49156,6.095652,,,0,,,0
161001004,,"Cruchten, Neistrooss",,49.799001,6.130131,,,0,,,0
220301072,,"Dudelange, Mayrisch Saint-Hubert",,49.479878,6.100486,,,0,,,0
161001001,,"Cruchten, Gare",,49.796192,6.120249,,,0,,,0
161001002,,"Cruchten, Haaptstrooss",,49.798953,6.129272,,,0,,,0
220301070,,"Dudelange, Rue Grand-Duc Adolphe",,49.470919,6.084117,,,0,,,0
180512001,,"Rodenbourg, Am Duerf",,49.688779,6.288334,,,0,,,0
180512002,,"Rodenbourg, An der Schleed",,49.686759,6.290054,,,0,,,0
220301079,,"Dudelange, Fohrmann",,49.477257,6.083561,,,0,,,0
220301077,,"Dudelange, Baltzeng",,49.492218,6.091428,,,0,,,0
220301078,,"Dudelange, Square Mayrisch",,49.482331,6.085704,,,0,,,0
220301075,,"Dudelange, Rue de la Vallée",,49.482997,6.080375,,,0,,,0
220301076,,"Dudelange, Rue Théodore Thiel",,49.490962,6.090853,,,0,,,0
220301073,,"Dudelange, Rue Schortgen",,49.48624,6.070212,,,0,,,0
220301074,,"Dudelange, Scherrwee",,49.485974,6.066112,,,0,,,0
130102002,,"Gralingen, Schoul",,49.936543,6.099774,,,0,,,0
150205001,,Roudbach (aire de virage),,49.778795,5.934603,,,0,,,0
130102001,,"Gralingen, Am Bréill",,49.935097,6.104878,,,0,,,0
161001005,,"Cruchten, Schléf",,49.796998,6.124079,,,0,,,0
161001006,,"Cruchten, Zaneschhaff",,49.803935,6.114355,,,0,,,0
220301082,,Riedgen 3,,49.494925,6.109679,,,0,,,0
220301080,,Riedgen 1,,49.48536,6.111416,,,0,,,0
220301081,,Riedgen 2,,49.491276,6.111979,,,0,,,0
210903001,,Trintange,,49.572334,6.281141,,,0,,,0
180603001,,"Manternach, Gare",,49.706808,6.423826,,,0,,,0
220202001,,"Lasauvage, Kajibi",,49.526233,5.83879,,,0,,,0
220202003,,"Lasauvage, Schoul",,49.524048,5.835227,,,0,,,0
220202002,,"Lasauvage, Kierch",,49.521459,5.836638,,,0,,,0
190101020,,"Bascharage, Sicon",,49.561856,5.897416,,,0,,,0
190101021,,"Bascharage, Widdems Bierg",,49.569745,5.906101,,,0,,,0
190101022,,"Bascharage, Théophile Aubart",,49.560173,5.886029,,,0,,,0
110411001,,"Bockholtz/Hosingen, Kiirch",,50.011553,6.05162,,,0,,,0
160806001,,Klingelscheuer,,49.69272,6.16781,,,0,,,0
120803001,,"Neunhausen, An der Urt",,49.876305,5.885593,,,0,,,0
150402004,,Grosbous-Op der Baach,,49.828212,5.966009,,,0,,,0
150402005,,Grosbous-Police,,49.829969,5.967499,,,0,,,0
150402002,,"Grosbous, Kiircheplaz",,49.826228,5.96516,,,0,,,0
150402003,,Grosbous-Kiirfënt,,49.825209,5.968144,,,0,,,0
130207001,,"Tandel, Schoul",,49.895402,6.181733,,,0,,,0
150402006,,"Grosbous, Sprëtzenhaus",,49.826626,5.966276,,,0,,,0
130207002,,"Tandel, Veianerstrooss",,49.896975,6.182031,,,0,,,0
221001001,,"Ehlange, Am Brill",,49.545941,6.015662,,,0,,,0
150402001,,Grosbous-Beim Iwwerlaf,,49.829308,5.961171,,,0,,,0
221001002,,"Ehlange, Am Pull",,49.549103,6.012717,,,0,,,0
220701009,,"Leudelange, Kamellebierg",,49.570536,6.063021,,,0,,,0
220701008,,"Leudelange, Gruef",,49.562919,6.06565,,,0,,,0
220701001,,"Leudelange, Beetebuergerwee",,49.56222,6.066121,,,0,,,0
220701003,,"Leudelange, Edeleck",,49.565623,6.079693,,,0,,,0
220701002,,"Leudelange, Bowent",,49.580257,6.061455,,,0,,,0
220701005,,"Leudelange, Gare",,49.58704,6.05965,,,0,,,0
220701004,,"Leudelange, Galgebösch",,49.569553,6.059041,,,0,,,0
220701007,,"Leudelange, Grasbösch",,49.577045,6.091352,,,0,,,0
220701006,,"Leudelange, Gemeng",,49.567538,6.062938,,,0,,,0
190602008,,"Kehlen, SICA",,49.662043,6.016737,,,0,,,0
190602009,,"Kehlen, Zone Industrielle 1",,49.663052,6.018893,,,0,,,0
8700178,,Colmar,,48.0512479,7.4830266,,,0,,,0
200425009,,"Rollingergrund, Steekaul",,49.624167,6.09734,,,0,,,0
200425007,,"Rollingergrund, Siweburen",,49.62741,6.104335,,,0,,,0
120606003,,"Wilwerwilt, Schoulkauz",,49.993829,5.998629,,,0,,,0
200425008,,"Rollingergrund, Stand de Tir",,49.624292,6.100531,,,0,,,0
8700179,,Sélestat,,48.2376722,7.5540967,,,0,,,0
200425005,,"Rollingergrund, Biischtefabrik",,49.615129,6.116555,,,0,,,0
120606001,,"Wilwerwiltz, Gare",,49.988539,6.001401,,,0,,,0
200425006,,"Rollingergrund, Roudebierg",,49.624699,6.104592,,,0,,,0
120606002,,"Wilwerwiltz, Tomm",,49.986805,6.007773,,,0,,,0
190101001,,"Bascharage, Arcades",,49.565514,5.907337,,,0,,,0
221106002,,"Roeser, Gemeng",,49.540927,6.145246,,,0,,,0
130301011,,"Vianden, Plank",,49.931141,6.202406,,,0,,,0
190101002,,"Bascharage, Boeltgen",,49.566688,5.913252,,,0,,,0
190602001,,"Kehlen, Bei Fiewer",,49.667518,6.034449,,,0,,,0
221106003,,"Roeser, Kiirfecht",,49.547319,6.150168,,,0,,,0
130301012,,"Vianden, Ruoderwee",,49.931975,6.220238,,,0,,,0
220701019,,"Leudelange, Schaefert",,49.572423,6.080007,,,0,,,0
190101003,,"Bascharage, Bomecht",,49.558852,5.889751,,,0,,,0
190602002,,"Kehlen, Enneschte Buer",,49.666646,6.028501,,,0,,,0
221106004,,"Roeser, Op der Hoehl",,49.548286,6.151066,,,0,,,0
190101004,,"Bascharage, Bommelscheier",,49.571794,5.920165,,,0,,,0
190602003,,"Kehlen, Op der Héicht",,49.666185,6.035071,,,0,,,0
221106005,,"Roeser, Weilerstrooss",,49.544363,6.149248,,,0,,,0
130301010,,"Vianden, Place Engelmann",,49.934502,6.201514,,,0,,,0
190101005,,"Bascharage, Bommertbësch",,49.572971,5.924159,,,0,,,0
190602004,,"Kehlen, Schaarfeneck",,49.670431,6.035437,,,0,,,0
170304001,,"Weilerbach, Laufenwehr",,49.839963,6.376054,,,0,,,0
130301015,,"Vianden, Schoul",,49.934182,6.207275,,,0,,,0
190101006,,"Bascharage, Brasserie",,49.567869,5.912334,,,0,,,0
190602005,,"Kehlen, Um Knapp",,49.667304,6.038371,,,0,,,0
170304002,,Weilerbach,,49.833193,6.383361,,,0,,,0
190101007,,"Bascharage, Centre Sportif",,49.563842,5.904718,,,0,,,0
190602006,,"Kehlen, Zone Industrielle 3",,49.664408,6.012185,,,0,,,0
130301013,,"Vianden, Scheierhaff 1",,49.941462,6.215231,,,0,,,0
190101008,,"Bascharage, Dicks Lentz",,49.565369,5.914373,,,0,,,0
190602007,,"Kehlen, Ecole centrale/ Gässel",,49.670768,6.033115,,,0,,,0
221106001,,"Roeser, Bei der Uelzecht",,49.540138,6.14355,,,0,,,0
130301014,,"Vianden, Scheierhaff 2",,49.942321,6.216883,,,0,,,0
190101009,,"Bascharage, Eglise",,49.567981,5.907098,,,0,,,0
220701012,,"Leudelange, Op Hals",,49.5633,6.069306,,,0,,,0
190801003,,"Bridel, Schanz",,49.64896,6.084433,,,0,,,0
220701011,,"Leudelange, Op der Strooss",,49.56342,6.070157,,,0,,,0
190801004,,"Bridel, Stuff",,49.652883,6.083367,,,0,,,0
220701014,,"Leudelange, Spillplaz",,49.578534,6.059857,,,0,,,0
190801001,,"Bridel, Berk",,49.65975,6.078494,,,0,,,0
220701013,,"Leudelange, Queesche Wee",,49.57036,6.062133,,,0,,,0
190801002,,"Bridel, Flamo",,49.659019,6.081587,,,0,,,0
220701016,,"Leudelange, Wäschbur",,49.566928,6.064428,,,0,,,0
220701015,,"Leudelange, Stiédswee",,49.568933,6.06901,,,0,,,0
220701018,,"Leudelange, Foyer",,49.569,6.081622,,,0,,,0
190801005,,"Bridel, Taverne",,49.657103,6.082685,,,0,,,0
190602010,,"Kehlen, Zone Industrielle 2",,49.662273,6.015185,,,0,,,0
220701017,,"Leudelange, Pëssendall",,49.572214,6.060403,,,0,,,0
200425003,,"Rollingergrund, Bei der Fiels",,49.617243,6.114395,,,0,,,0
200425004,,"Rollingergrund, Beim Klomp",,49.618,6.111179,,,0,,,0
200425002,,"Reckenthal, Gäertnerei",,49.624799,6.092427,,,0,,,0
210203001,,"Emerange, Centre Culturel",,49.487437,6.291193,,,0,,,0
8226852,,Nocher-Kautebaacherwee,,49.9482391,5.984797,,,0,,,0
220701010,,"Leudelange, Ketzelach",,49.579693,6.05731,,,0,,,0
8226851,,Nocher-Kautebaacherwee,,49.9482917,5.9848229,,,0,,,0
190101011,,"Bascharage/Sanem, Gare",,49.558253,5.923853,,,0,,,0
190101012,,"Bascharage, Industriezon",,49.573893,5.929759,,,0,,,0
190101013,,"Bascharage, Jules Hemmer",,49.560161,5.885906,,,0,,,0
130301001,,Mont St. Nicolas,,49.946754,6.166328,,,0,,,0
190101014,,"Bascharage, Op Krattert",,49.559709,5.92177,,,0,,,0
190101015,,"Bascharage, Pierre Clement",,49.56268,5.917807,,,0,,,0
110305001,,Kaesfurt,,50.092443,6.072846,,,0,,,0
190101016,,"Bascharage, Place Schuman",,49.56515,5.907208,,,0,,,0
130301004,,"Vianden, Bréck",,49.933721,6.207204,,,0,,,0
190101017,,"Bascharage, Prince Henri",,49.57082,5.917723,,,0,,,0
130301005,,"Vianden, Camping Moulin",,49.927989,6.220983,,,0,,,0
190101018,,"Bascharage, R.P. Siebenbour",,49.560394,5.893899,,,0,,,0
191101001,,Grass,,49.630977,5.89132,,,0,,,0
130301002,,"Vianden, Aale Moart",,49.93807,6.203984,,,0,,,0
190101019,,"Bascharage, Rue de Schouweiler",,49.572891,5.923873,,,0,,,0
130301003,,"Vianden, Am Bousebierg",,49.9397,6.208155,,,0,,,0
130301008,,"Vianden, Larei",,49.9369,6.206198,,,0,,,0
130301009,,"Vianden, Piscine",,49.940293,6.20964,,,0,,,0
130301006,,"Vianden, Gare",,49.933482,6.212556,,,0,,,0
130301007,,"Vianden, Gemeng",,49.933382,6.204325,,,0,,,0
200425012,,"Rollingergrund, Villeroy & Boch",,49.628151,6.106631,,,0,,,0
200425013,,"Rollingergrund, L.T.P.S. (Pavillon)",,49.619848,6.096987,,,0,,,0
200425010,,"Rollingergrund, Val Fleuri",,49.619094,6.107819,,,0,,,0
200425011,,"Rollingergrund, Val St André",,49.621832,6.105759,,,0,,,0
220701020,,Leudelange-LaLux,,49.567138,6.076269,,,0,,,0
150902001,,"Vichten, Akscht",,49.800192,5.992044,,,0,,,0
220203027,,"Niederkorn, Rue de Longwy",,49.534266,5.887843,,,0,,,0
150902005,,"Vichten, Hemeschbaach",,49.801445,6.007395,,,0,,,0
150501004,,"Arsdorf, Um Knupp",,49.862544,5.844866,,,0,,,0
150902006,,"Vichten, Ohligsfeld",,49.802473,6.002272,,,0,,,0
150501005,,"Arsdorf, Misärshaff",,49.866231,5.830303,,,0,,,0
150902003,,"Vichten, Bäerig",,49.800299,5.998584,,,0,,,0
150501002,,"Arsdorf, Am Gronn",,49.859087,5.849725,,,0,,,0
150902004,,"Vichten, Gemeng",,49.804347,5.994038,,,0,,,0
150501003,,"Arsdorf, An der Gaass",,49.858927,5.842193,,,0,,,0
200404007,,"Bonnevoie, Demy Schlechter",,49.594988,6.143473,,,0,,,0
190604003,,"Meispelt, Kuesselt",,49.692404,6.060962,,,0,,,0
200404006,,"Bonnevoie, Chalop",,49.600442,6.149756,,,0,,,0
190604002,,"Meispelt, Kräizwee",,49.685898,6.058068,,,0,,,0
150501001,,"Arsdorf, Am Duerf",,49.860375,5.84285,,,0,,,0
200404009,,"Bonnevoie, Ecole Demy Schlechter",,49.595401,6.145968,,,0,,,0
150902007,,"Vichten, Schoul",,49.802822,5.999429,,,0,,,0
200404008,,"Bonnevoie, Dernier Sol",,49.595087,6.135827,,,0,,,0
120406003,,"Nocher, Route N°40",,49.948085,5.961072,,,0,,,0
120406004,,"Nocher, Schoul",,49.946972,5.977328,,,0,,,0
200404001,,"Verlorenkost, Al Molkerei",,49.605379,6.136553,,,0,,,0
120406005,,"Nocher, Um Knupp",,49.947128,5.972286,,,0,,,0
120406006,,"Nocher, Welscheedgen",,49.945152,5.974821,,,0,,,0
200404003,,"Bonnevoie, Anatole France",,49.598688,6.149388,,,0,,,0
200404002,,"Verlorenkost, Aloyse Meyer",,49.60664,6.144633,,,0,,,0
200404005,,"Bonnevoie, Carignan",,49.598962,6.143393,,,0,,,0
200404004,,"Bonnevoie, Baden-Powell",,49.599998,6.150737,,,0,,,0
220203021,,"Niederkorn, Rue des Ligures",,49.536902,5.897214,,,0,,,0
220203022,,"Niederkorn, Stade Jos. Haupert",,49.544295,5.89611,,,0,,,0
220203020,,"Niederkorn, Rue de Sanem",,49.539049,5.902774,,,0,,,0
220203026,,"Niederkorn, Rue de l'Eglise",,49.537231,5.889023,,,0,,,0
220203023,,"Niederkorn, Mathendahl",,49.543237,5.893218,,,0,,,0
120406001,,"Nocher, Route",,49.946508,5.965103,,,0,,,0
220203024,,"Niederkorn, Rte Basch/Pétange",,49.540533,5.892048,,,0,,,0
120406002,,"Nocher, Route N°20",,49.948293,5.958731,,,0,,,0
200416001,,Cité Aéroport,,49.625822,6.198034,,,0,,,0
200416002,,"Kalchesbréck, Reno",,49.621983,6.18737,,,0,,,0
120601001,,"Alscheid, Haut",,49.969668,6.005364,,,0,,,0
120601002,,"Alscheid, Village",,49.970209,6.007841,,,0,,,0
220101002,,"Abweiler, rue du Village",,49.532739,6.085359,,,0,,,0
180802002,,"Ehnen, Bromelt",,49.597225,6.380087,,,0,,,0
180802001,,"Ehnen, An den Aessen",,49.60199,6.385935,,,0,,,0
180802004,,"Ehnen, Lehboesch",,49.6048,6.389647,,,0,,,0
220101001,,Abweiler,,49.533861,6.081671,,,0,,,0
180802003,,"Ehnen, Ieselsbreck",,49.600821,6.388351,,,0,,,0
180802006,,"Ehnen, Lehboesch 2",,49.604709,6.392808,,,0,,,0
180802005,,"Ehnen, Neie Wee",,49.601787,6.388092,,,0,,,0
170701001,,"Dickweiler, Duerfplaz",,49.783312,6.47255,,,0,,,0
221003001,,"Pissange, Wäschbur",,49.549164,6.001486,,,0,,,0
121009002,,"Winseler, Rosskämmchen",,49.967845,5.884664,,,0,,,0
140801004,,"Niederfeulen, route d'Arlon",,49.854304,6.044036,,,0,,,0
121009001,,"Winseler, Beim Burren",,49.966994,5.891162,,,0,,,0
120304003,,"Selscheid, Roudebësch",,50.018088,5.94751,,,0,,,0
200404029,,"Bonnevoie, Nic Martha",,49.592916,6.148839,,,0,,,0
120304002,,"Selscheid, Ennëscht Wis",,50.020429,5.949274,,,0,,,0
200404028,,"Bonnevoie, Neufchâteau",,49.59049,6.14094,,,0,,,0
140801001,,"Niederfeulen, Belle Vue",,49.85474,6.043508,,,0,,,0
200302001,,"Fentange, Duelemerbach",,49.569953,6.151215,,,0,,,0
120304001,,"Selscheid, Dirwis",,50.016389,5.947869,,,0,,,0
140801002,,"Niederfeulen, Faubourg",,49.852489,6.051201,,,0,,,0
200302002,,"Fentange, Fuertwee",,49.564125,6.152025,,,0,,,0
140801003,,"Niederfeulen, Mairie",,49.854042,6.045749,,,0,,,0
200404021,,"Bonnevoie, Jules Fischer",,49.5923,6.146467,,,0,,,0
200404020,,"Bonnevoie, Jeanne d'Arc",,49.596887,6.1475,,,0,,,0
200404023,,"Bonnevoie, Kofferfabrik",,49.60093,6.145091,,,0,,,0
200404022,,"Bonnevoie, Kaltreis",,49.593622,6.150832,,,0,,,0
200302003,,"Fentange, Hiehl",,49.56751,6.152492,,,0,,,0
200404025,,"Verlorenkost, Lavoisier",,49.605216,6.140881,,,0,,,0
200302004,,"Fentange, Op de Leemen",,49.56149,6.14879,,,0,,,0
200404024,,"Verlorenkost, Laboratoire",,49.604681,6.138172,,,0,,,0
8271142,,Rodange-Gr.,,48.930171,5.077006,,,0,,,0
200404027,,"Bonnevoie, Lycée Technique de Bonnevoie/Quais",,49.591088,6.141473,,,0,,,0
8271141,,Bettembourg-fr.,,48.93017,5.076993,,,0,,,0
200404026,,"Bonnevoie, Léon XIII",,49.596872,6.138172,,,0,,,0
191001001,,"Greisch, Op der Quaert",,49.709759,5.986816,,,0,,,0
150513001,,Riesenhaff,,49.840252,5.815658,,,0,,,0
170404001,,Wolpert,,49.762827,6.352114,,,0,,,0
190901008,,"Capellen,Eechterfeld",,49.6419,6.011527,,,0,,,0
110502001,,"Marnach, Beim Cube",,50.054047,6.06212,,,0,,,0
190901009,,"Capellen, Pafebruch",,49.640891,6.013917,,,0,,,0
110502002,,"Marnach, Beim Sender",,50.043275,6.077292,,,0,,,0
190901006,,"Capellen, Centre de Réadaptation",,49.648363,5.986676,,,0,,,0
200506006,,"Rameldange, Op der Bunn",,49.662021,6.228939,,,0,,,0
190901007,,"Capellen, Hirebësch",,49.641741,6.006079,,,0,,,0
200506005,,"Rameldange, Bounert",,49.664164,6.23917,,,0,,,0
190901004,,"Capellen, Police",,49.644074,5.993009,,,0,,,0
200506004,,"Rameldange, Beim Bësch",,49.665993,6.230279,,,0,,,0
110502005,,"Marnach, Geschäftszenter",,50.052548,6.072216,,,0,,,0
190901005,,"Capellen, Ponts & Chaussées",,49.646147,5.977281,,,0,,,0
200506003,,"Rameldange, Beiebierg",,49.669557,6.234111,,,0,,,0
110502006,,"Marnach, Bei der Kierch",,50.053009,6.06094,,,0,,,0
190901002,,"Capellen, Hireknapp",,49.641571,6.001601,,,0,,,0
200506002,,"Rameldange, Rëtsch",,49.665612,6.242179,,,0,,,0
110502003,,"Marnach, Dosberstrooss",,50.050102,6.073343,,,0,,,0
190901003,,"Capellen, Klouschter",,49.645915,5.985968,,,0,,,0
200506001,,"Rameldange, Am Duerf",,49.664009,6.230448,,,0,,,0
110502004,,"Marnach, Fëschberstrooss",,50.066766,6.068457,,,0,,,0
221105001,,"Peppange, Duerfplaz",,49.523609,6.126741,,,0,,,0
200404018,,"Bonnevoie, Izegerknupp",,49.5959,6.15016,,,0,,,0
221105002,,"Peppange, Kirchwois",,49.527805,6.132673,,,0,,,0
200404017,,"Bonnevoie, Huese Vic",,49.60371,6.137107,,,0,,,0
221105003,,"Peppange, Musée",,49.523959,6.129595,,,0,,,0
200404019,,"Bonnevoie, Jean Jacoby",,49.598375,6.146915,,,0,,,0
200404010,,"Bonnevoie, Edouard Grenier",,49.594687,6.142591,,,0,,,0
200404012,,"Bonnevoie, Emile Duployé",,49.59892,6.144959,,,0,,,0
200404011,,"Bonnevoie, Egalité",,49.599954,6.147473,,,0,,,0
200404014,,"Bonnevoie, Gabriel Lippmann",,49.599087,6.142597,,,0,,,0
200404013,,"Bonnevoie, Fraternité",,49.599149,6.140018,,,0,,,0
200404016,,"Bonnevoie, Hippodrome",,49.593295,6.139046,,,0,,,0
190604001,,"Meispelt, Bei Mëllesch",,49.689972,6.055548,,,0,,,0
200404015,,"Verlorenkost, Gaulois",,49.600645,6.138284,,,0,,,0
110502009,,"Marnach, Pennick",,50.064037,6.066583,,,0,,,0
110502007,,"Marnach, Munzerstrooss",,50.049401,6.058436,,,0,,,0
110502008,,"Marnach, Op der Bréck",,50.054782,6.067371,,,0,,,0
141003001,,Freckeisen,,49.801558,6.259811,,,0,,,0
220901012,,"Lamadelaine, Bei der Millen",,49.551414,5.858874,,,0,,,0
220901010,,"Lamadelaine, Tëtelbiergstr.",,49.544635,5.849133,,,0,,,0
210102004,,"Bous, Kierch",,49.55531,6.329271,,,0,,,0
210102003,,"Bous, Kapell",,49.554491,6.325761,,,0,,,0
220901013,,"Lamadelaine, Wisestrooss",,49.550038,5.855603,,,0,,,0
210102002,,"Bous, Herdermillen",,49.55607,6.338038,,,0,,,0
170803001,,"Müllerthal, Cascades",,49.79063,6.307854,,,0,,,0
170803002,,Müllerthal/Möllerdall,,49.790739,6.306764,,,0,,,0
170803003,,"Müllerthal, Schiessentümpel (Parking)",,49.780013,6.296995,,,0,,,0
210102001,,"Bous, Enner dem Pavé",,49.555677,6.333883,,,0,,,0
200404039,,"Bonnevoie, Lycée Technique de Bonnevoie",,49.591286,6.141475,,,0,,,0
110808001,,Doennange,,50.061152,5.957045,,,0,,,0
110821001,,"Wincrange, Eglise",,50.051471,5.91816,,,0,,,0
110821002,,"Wincrange, Kiemel",,50.054845,5.91751,,,0,,,0
200404032,,"Bonnevoie, Pierre Hentges",,49.602948,6.141942,,,0,,,0
200404031,,"Bonnevoie, Pierre Blanc",,49.598867,6.140976,,,0,,,0
200404034,,"Bonnevoie, Rotonde",,49.599523,6.137297,,,0,,,0
120703002,,"Harlange, Bréck",,49.93055,5.788244,,,0,,,0
200404033,,"Bonnevoie, Pont-Remy",,49.594462,6.144389,,,0,,,0
120703001,,"Harlange, Bei der Schoul",,49.931978,5.786225,,,0,,,0
200404036,,"Bonnevoie, Virchow",,49.601778,6.13938,,,0,,,0
200404035,,"Bonnevoie, Vannérus",,49.59744,6.140769,,,0,,,0
200404038,,"Bonnevoie, Wisestrooss",,49.597888,6.144327,,,0,,,0
200404037,,"Bonnevoie, Willibrord",,49.593782,6.140914,,,0,,,0
200404030,,"Verlorenkost, Général Patton",,49.607786,6.142212,,,0,,,0
220203007,,"Niedercorn, Maison de Retraite",,49.544398,5.889231,,,0,,,0
220203008,,"Niedercorn, Péitengerwee",,49.539407,5.890986,,,0,,,0
220203009,,"Niedercorn, Place du Marché",,49.535329,5.891549,,,0,,,0
150102002,,"Elvange/Beckerich, Schoul",,49.724373,5.916954,,,0,,,0
150102001,,"Elvange/Beckerich, Gesanksbau",,49.724497,5.919555,,,0,,,0
220203003,,"Niedercorn, CFL Halte",,49.536359,5.893392,,,0,,,0
220203004,,"Niedercorn, Cité de la Chiers",,49.5432,5.889847,,,0,,,0
220203001,,"Niedercorn, Aale Stadion",,49.538753,5.903816,,,0,,,0
220203002,,"Niedercorn, Altersheim",,49.546153,5.889244,,,0,,,0
140307003,,"Michelau, Op der Sauer",,49.903859,6.092194,,,0,,,0
151002002,,"Buschrodt, Schoul",,49.826446,5.933119,,,0,,,0
220203018,,"Niederkorn, Gielen Botter",,49.533203,5.871447,,,0,,,0
140307004,,"Michelau, Willspull",,49.888364,6.094922,,,0,,,0
151002001,,Buschrodt,,49.82606,5.93452,,,0,,,0
220203019,,"Niederkorn, P.Gansen",,49.537708,5.900066,,,0,,,0
140307001,,"Michelau, Gare",,49.89701,6.091715,,,0,,,0
220203016,,"Niedercorn, CHEM 1",,49.533432,5.885919,,,0,,,0
140307002,,"Michelau, Kiirch",,49.897908,6.090909,,,0,,,0
220203017,,"Niedercorn, Spillplaz",,49.530428,5.874638,,,0,,,0
1750060,,Hall Victor Hugo,,49.620861,6.122766,,,0,,,0
220203010,,"Niedercorn, Rue de Pétange",,49.541315,5.890326,,,0,,,0
220203011,,"Niederkorn, Schoul",,49.536094,5.891238,,,0,,,0
220203014,,"Niedercorn, Hondsterrain",,49.527518,5.879467,,,0,,,0
220203015,,Fond de Gras,,49.533803,5.863391,,,0,,,0
220203012,,"Niedercorn, Suessemerwee",,49.537268,5.898421,,,0,,,0
110407001,,"Rodershausen, Kiirch",,50.036385,6.12992,,,0,,,0
220203013,,"Niedercorn, Franzousekräiz",,49.528153,5.86038,,,0,,,0
110407002,,"Rodershausen, Um Weier",,50.040346,6.131849,,,0,,,0
180306001,,Oberdonven,,49.649931,6.399536,,,0,,,0
140701013,,"Ettelbruck, Rue de Warken 49",,49.84857,6.097616,,,0,,,0
110813001,,Lullange,,50.058567,5.942201,,,0,,,0
140701010,,"Ettelbruck, Cité Thill",,49.839728,6.097673,,,0,,,0
130108003,,Groësteen,,49.946902,6.148154,,,0,,,0
141202002,,"Hoesdorf, Veräinsbau",,49.882809,6.256381,,,0,,,0
8221742,,Luxembourg-Crécy,,49.6078148,6.1169684,,,0,,,0
140701019,,"Ettelbruck, Hall Deich",,49.844566,6.094712,,,0,,,0
140701018,,"Ettelbruck, H.v.Landewyck",,49.839566,6.098017,,,0,,,0
140701017,,"Ettelbruck, Grondwee",,49.847843,6.089813,,,0,,,0
140701016,,"Ettelbruck, Gare",,49.847615,6.106578,,,0,,,0
140701015,,"Ettelbruck, Ecole Primaire",,49.845935,6.09872,,,0,,,0
141202001,,"Hoesdorf, Kranzenhaff",,49.89214,6.23527,,,0,,,0
160301007,,"Colmar, Usines",,49.804823,6.091978,,,0,,,0
160301008,,"Colmar, Usine Hyosung",,49.804127,6.1051,,,0,,,0
160301005,,"Colmar, Goldbierg",,49.809992,6.096117,,,0,,,0
210301001,,"Dalheim, Hossegaass",,49.540646,6.26157,,,0,,,0
160301006,,"Colmar, Raedelsboesch",,49.79672,6.098148,,,0,,,0
210301002,,"Dalheim, Poste",,49.542679,6.256659,,,0,,,0
160301003,,"Colmar, Faubourg",,49.805938,6.09515,,,0,,,0
160301004,,"Colmar-Berg, Gare",,49.815019,6.101071,,,0,,,0
160301001,,"Colmar, C. Administratif",,49.803586,6.091079,,,0,,,0
160301002,,"Colmar, Centre",,49.811854,6.097173,,,0,,,0
140701024,,"Ettelbruck, Pensionnat",,49.847441,6.103179,,,0,,,0
140701023,,"Ettelbruck, Lycée technique",,49.850242,6.099742,,,0,,,0
120707003,,"Nothum, Schumann",,49.945461,5.878929,,,0,,,0
140701021,,"Ettelbruck, L.T.Salentiny",,49.850308,6.099112,,,0,,,0
120707002,,"Nothum, Molkerei",,49.940882,5.881261,,,0,,,0
140701020,,"Ettelbruck, Hopital St. Louis",,49.853079,6.094132,,,0,,,0
210301003,,"Dalheim, Waasserklapp",,49.546941,6.25541,,,0,,,0
120707001,,"Nothum,Duerfstrooss",,49.940867,5.883729,,,0,,,0
210301004,,"Dalheim, Gemeng",,49.543091,6.259235,,,0,,,0
160301009,,"Colmar, Z.I. Jean Piret",,49.803415,6.102182,,,0,,,0
160908002,,"Rollingen, Veräinsbau",,49.741251,6.113732,,,0,,,0
140701028,,"Ettelbruck, Rue Bourschterbach",,49.858471,6.089564,,,0,,,0
140701027,,"Ettelbruck, Rue Abbe Joseph Flies",,49.851493,6.074011,,,0,,,0
160908001,,"Rollingen, Lëtzebuergerstr.",,49.735432,6.116673,,,0,,,0
140701026,,"Ettelbruck, Rond Point",,49.843784,6.09871,,,0,,,0
140701025,,"Ettelbruck, Pl.du Marché",,49.845912,6.096384,,,0,,,0
210501003,,"Altwies, Buergässel",,49.510001,6.255393,,,0,,,0
160301010,,"Colmar, rue de Luxembourg",,49.81165,6.09731,,,0,,,0
160301011,,"Colmar, rue d'Ettelbruck",,49.813191,6.098122,,,0,,,0
210501001,,"Altwies, An der Kaz",,49.50911,6.257626,,,0,,,0
210501002,,"Altwies, Beckeschmillen",,49.509344,6.250069,,,0,,,0
170705001,,"Steinheim, An der Uecht",,49.818957,6.476004,,,0,,,0
160301012,,"Colmar, L.T.A.",,49.803794,6.099351,,,0,,,0
140701033,,"Ettelbruck, Rue J.A. Zinnen 20",,49.849178,6.086352,,,0,,,0
140701032,,"Ettelbruck, Rue J.A. Zinnen",,49.849053,6.09212,,,0,,,0
140701031,,"Ettelbruck, Rue du Deich (CHNP)",,49.843676,6.096185,,,0,,,0
140701030,,"Ettelbruck, Rue de Bastogne",,49.847098,6.094157,,,0,,,0
140701039,,"Ettelbruck, Rue Prince Jean",,49.848098,6.100677,,,0,,,0
140701038,,"Ettelbruck, Rue Pierre Krack",,49.852551,6.093162,,,0,,,0
140701037,,"Ettelbruck, Rue Ph.Manternach",,49.850216,6.084342,,,0,,,0
160101007,,"Bissen, Steekräiz",,49.786883,6.073711,,,0,,,0
160101008,,"Bissen, Um Sand",,49.78703,6.058529,,,0,,,0
160101009,,"Bissen, Z.A.C. Klengbousbierg",,49.790132,6.086216,,,0,,,0
140701046,,"Ettelbrück, Camping",,49.845944,6.082248,,,0,,,0
160101003,,"Bissen, Geiwels",,49.791747,6.071431,,,0,,,0
180204002,,Breinertknupp,,49.712456,6.33478,,,0,,,0
140701045,,"Ettelbruck, Zone Industrielle",,49.839594,6.094857,,,0,,,0
160101004,,"Bissen, Kiirch",,49.787713,6.06738,,,0,,,0
180204001,,Breinert,,49.711973,6.342715,,,0,,,0
140701044,,"Ettelbruck, Cité Patton 2",,49.850567,6.079743,,,0,,,0
160101005,,"Bissen, Op der Millen",,49.795326,6.074592,,,0,,,0
140701042,,"Ettelbruck, Cité Lopert 2",,49.850878,6.077053,,,0,,,0
140701040,,"Ettelbruck, Serv Industriels",,49.849848,6.096204,,,0,,,0
160101001,,"Bissen, ArcelorMittal S.A.",,49.784397,6.058299,,,0,,,0
160101002,,"Bissen, Kräizung",,49.789071,6.063102,,,0,,,0
110103003,,"Reuler, Hôh",,50.052875,6.034108,,,0,,,0
110103002,,"Reuler, Duerf",,50.05688,6.036279,,,0,,,0
120902001,,"Weidingen, Erpeldangerstr.",,49.974708,5.939628,,,0,,,0
110103001,,"Reuler, Centre Scolaire",,50.061647,6.038011,,,0,,,0
140701048,,"Ettelbrück, Rue du Camping 17",,49.847207,6.091354,,,0,,,0
140701047,,"Ettelbrück, Rue du Camping 56",,49.846943,6.086932,,,0,,,0
150302001,,"Colpach-Haut, Pompjeesbau",,49.767502,5.819473,,,0,,,0
200408005,,"Clausen, Plateau Altmunster",,49.612784,6.139885,,,0,,,0
200408004,,"Clausen, Melusina",,49.611388,6.141268,,,0,,,0
200408003,,"Clausen, Malakoff",,49.61518,6.146543,,,0,,,0
200408002,,"Neudorf, Fixmer",,49.618994,6.156774,,,0,,,0
180505001,,"Eisenborn, Am Duerf",,49.691788,6.184159,,,0,,,0
200408008,,"Clausen, Tour Jacob",,49.611852,6.142556,,,0,,,0
200408007,,"Clausen, Ste Cunégonde",,49.61433,6.141275,,,0,,,0
200408006,,"Clausen, Rumm",,49.610778,6.139171,,,0,,,0
190901001,,"Capellen, Gare",,49.638517,5.982422,,,0,,,0
200408001,,"Clausen, Clausener Bréck",,49.613538,6.143426,,,0,,,0
120402001,,Bitschtermillen,,49.932417,5.939689,,,0,,,0
120402002,,"Büderscheid, Village",,49.933889,5.941255,,,0,,,0
140502002,,Ermsdorf,,49.828196,6.222092,,,0,,,0
140502001,,"Ermsdorf, Buntewee",,49.830088,6.217701,,,0,,,0
161101001,,"Ansembourg, Kapell",,49.702441,6.040714,,,0,,,0
170101009,,"Beaufort, Um Bierg",,49.843441,6.288756,,,0,,,0
170101005,,"Beaufort, Iewescht Heed",,49.848202,6.27736,,,0,,,0
170101004,,"Beaufort, Huelewee",,49.832851,6.29601,,,0,,,0
170101006,,"Beaufort, Op der Gare",,49.837073,6.29074,,,0,,,0
170101001,,"Beaufort, Aispist",,49.840883,6.28901,,,0,,,0
110602001,,Drinklange,,50.134163,6.015142,,,0,,,0
170101003,,"Beaufort, Härewiss",,49.833652,6.292558,,,0,,,0
170101002,,"Beaufort, Ennescht Heed",,49.844898,6.276878,,,0,,,0
200701005,,"Munsbach, Parc d'Activité Syrdall",,49.638338,6.268101,,,0,,,0
200701004,,"Munsbach, Op der Gare",,49.630807,6.268814,,,0,,,0
200701003,,"Munsbach, Minsber Baach",,49.633959,6.267044,,,0,,,0
200701002,,"Munsbach, Kulturzentrum",,49.630454,6.267587,,,0,,,0
170705002,,"Steinheim, Maeleck",,49.814289,6.481822,,,0,,,0
200701001,,"Munsbach, Gare",,49.631101,6.268686,,,0,,,0
170705003,,"Steinheim, Spillschoul",,49.819506,6.475169,,,0,,,0
110801001,,"Allerborn, Kreizung",,50.034665,5.872447,,,0,,,0
110801002,,"Allerborn, Maison 20",,50.035609,5.870081,,,0,,,0
110801003,,"Allerborn, Maison 6",,50.036236,5.877974,,,0,,,0
8208781,,Brisenhaff,,49.7978851,5.8810319,,,0,,,0
121005002,,"Noertrange, Um Dréicht",,49.979274,5.90933,,,0,,,0
121005001,,"Noertrange, Hekt",,49.980965,5.904924,,,0,,,0
170205001,,"Rippig, Rippigerkopp",,49.746408,6.309152,,,0,,,0
170205002,,Rippig,,49.738125,6.322436,,,0,,,0
190702002,,"Goetzingen, Kreiz",,49.662224,5.979014,,,0,,,0
190702001,,"Goetzingen, Kiirch",,49.659598,5.98109,,,0,,,0
200502002,,"Ernster, Engelshaff",,49.673962,6.244133,,,0,,,0
200502001,,"Ernster, Duerfplaz",,49.679501,6.248201,,,0,,,0
200502003,,"Ernster, Naasswiss",,49.682561,6.247473,,,0,,,0
150605002,,"Ospern, Wäschbur",,49.783757,5.900678,,,0,,,0
150605001,,"Ospern, Kiirch",,49.780689,5.909738,,,0,,,0
190305002,,"Bettange, Mess",,49.574866,5.982077,,,0,,,0
190305001,,"Bettange, Dippecherstrooss",,49.576004,5.989505,,,0,,,0
140701002,,"Ettelbruck, Baurestuff",,49.847849,6.10655,,,0,,,0
140701001,,"Ettelbruck, Anc. Clinique",,49.847819,6.103199,,,0,,,0
221101001,,"Berchem, Gare",,49.542674,6.133696,,,0,,,0
140701009,,"Ettelbruck, Cité Patton 1",,49.848754,6.083804,,,0,,,0
160405002,,Koedange,,49.734528,6.209348,,,0,,,0
140701008,,"Ettelbruck, Cité Lopert 1",,49.850195,6.072475,,,0,,,0
140701007,,"Ettelbruck, Cité Bourschterbach",,49.860679,6.087219,,,0,,,0
140701006,,"Ettelbruck, Hall Omnisports",,49.841058,6.093323,,,0,,,0
140701003,,"Ettelbruck, Boeschel",,49.846415,6.094198,,,0,,,0
210602002,,"Schengen, Koerech",,49.470624,6.364403,,,0,,,0
210602001,,"Schengen, Ennen am Doref",,49.473222,6.365893,,,0,,,0
210602005,,"Schengen, Um Haff",,49.469434,6.357993,,,0,,,0
210602004,,"Schengen, Séckerbaach",,49.475528,6.366045,,,0,,,0
210602003,,"Schengen, Schoul",,49.469452,6.361539,,,0,,,0
220702002,,"Leudelange, Ackerheek",,49.583748,6.05899,,,0,,,0
220402067,,"Esch/Alzette, Op Zaepert",,49.506716,5.969033,,,0,,,0
220702001,,"Leudelange, Schléiwenhaff",,49.578048,6.057714,,,0,,,0
220402066,,"Esch/Alzette, Op der Léier",,49.504188,5.984869,,,0,,,0
220402065,,"Esch/Alzette, Nossbierg",,49.491803,5.99534,,,0,,,0
220402064,,"Esch/Alzette, Neiduerf",,49.495942,5.990169,,,0,,,0
220402069,,"Esch/Alzette, Pater Kiirch",,49.499919,5.975048,,,0,,,0
160905001,,"Moesdorf, Kiirch",,49.768407,6.115022,,,0,,,0
220402060,,"Esch/Alzette, Lycée Tech.Lal.",,49.510702,5.98451,,,0,,,0
8700266,,Saverne,,48.6583137,7.4578759,,,0,,,0
150804002,,"Useldange, Raiffeisekeess",,49.771037,5.982099,,,0,,,0
150804003,,"Useldange, Spuerkeess 1",,49.769846,5.980603,,,0,,,0
150804001,,"Useldange, Beim Gärdner",,49.76476,5.977378,,,0,,,0
220402055,,"Esch/Alzette, Lycée des Garçons",,49.499023,5.982397,,,0,,,0
220402054,,"Esch/Alzette, Leesberg",,49.501307,5.996526,,,0,,,0
220402053,,"Esch/Alzette, Lallenger Schoul",,49.510399,5.989129,,,0,,,0
220402059,,"Esch/Alzette, Lycée H. Clement",,49.501879,5.977731,,,0,,,0
220402058,,"Esch/Alzette, LTE Victor Hugo",,49.496224,5.974447,,,0,,,0
220402057,,"Esch/Alzette, LT (Sommet)",,49.505943,5.979719,,,0,,,0
220402052,,"Esch/Alzette, Lallenger Kiirch",,49.506943,5.989065,,,0,,,0
220402051,,"Esch/Alzette, Rue Victor Hugo",,49.496637,5.975803,,,0,,,0
220402050,,"Esch/Alzette, Grand-rue",,49.496981,5.983116,,,0,,,0
140201005,,Kempchen,,49.851263,6.163488,,,0,,,0
140201004,,"Bettendorf, Annexe L.T.A.",,49.873577,6.210705,,,0,,,0
140201003,,"Bettendorf, Schlass",,49.876572,6.221502,,,0,,,0
140201002,,"Bettendorf, Gemeng",,49.876117,6.217533,,,0,,,0
140201001,,"Bettendorf, Elick",,49.875598,6.208319,,,0,,,0
110805001,,Crendal,,50.057131,5.896948,,,0,,,0
220402044,,"Esch/Alzette, Rue de l'Hôpital",,49.501205,5.980508,,,0,,,0
220402043,,"Esch/Alzette, Hongrege Bur",,49.488988,5.995747,,,0,,,0
220402042,,"Esch/Alzette, Hiehl",,49.484848,5.977731,,,0,,,0
150106004,,"Noerdange, Op der Gare",,49.741567,5.922388,,,0,,,0
180201001,,"Biwer, Barrière",,49.699005,6.380398,,,0,,,0
220402049,,"Esch/Alzette, Clinique Ste Marie",,49.501125,5.986757,,,0,,,0
150106003,,"Noerdange, Beim Kiirfecht",,49.740894,5.924485,,,0,,,0
220402048,,"Esch/Alzette, Kierfecht Lall.",,49.511083,5.987747,,,0,,,0
220402047,,"Esch/Alzette, Kazebierg",,49.479647,5.978065,,,0,,,0
150106005,,"Noerdange, Scheiweswies",,49.738045,5.922931,,,0,,,0
180201004,,"Biwer, Mairie",,49.705954,6.372631,,,0,,,0
150106002,,"Noerdange, Batzen",,49.744113,5.919367,,,0,,,0
180201003,,"Biwer, Klosmillen",,49.713326,6.358609,,,0,,,0
150106001,,"Noerdange, Ale Pompjesbau",,49.742696,5.928314,,,0,,,0
180201002,,"Biwer, Haaptstrooss",,49.702462,6.376134,,,0,,,0
220402041,,"Esch/Alzette, Groussgaass",,49.496952,5.983035,,,0,,,0
190301004,,"Dippach-Reckange, Gare",,49.572494,5.996348,,,0,,,0
161004001,,"Oberglabach, Kapell",,49.784569,6.149339,,,0,,,0
140303001,,Friedbësch,,49.948321,6.055959,,,0,,,0
190301001,,"Bettange, Bei der Barriär",,49.572776,5.996123,,,0,,,0
190301003,,"Bettange, Këscht",,49.576301,5.9926,,,0,,,0
190301002,,"Bettange, Duerf",,49.574947,5.984493,,,0,,,0
220402034,,"Esch/Alzette, Gare",,49.494181,5.985443,,,0,,,0
220402033,,"Esch/Alzette, Fettmeth",,49.504727,5.975538,,,0,,,0
220402032,,"Esch/Alzette, Ennescht Homescht",,49.494737,5.95929,,,0,,,0
220402031,,"Esch/Alzette, Place Pierre Ponath",,49.480957,5.977584,,,0,,,0
220402038,,"Esch/Alzette, Gare (bd. Kenn)",,49.494579,5.985515,,,0,,,0
220402036,,"Esch/Alzette, Pl. Hôtel de Ville",,49.496257,5.985343,,,0,,,0
220402035,,"Esch/Alzette, Place de la Paix",,49.50484,5.984677,,,0,,,0
201002001,,Biirgerkräiz,,49.646386,6.097985,,,0,,,0
220402030,,"Esch/Alzette, Bruchschoul",,49.502358,5.968543,,,0,,,0
150403001,,"Lehrhof, Mieswee",,49.855697,5.946198,,,0,,,0
220803029,,"Mondercange, Parking Kopp",,49.521565,5.987075,,,0,,,0
220803028,,"Mondercange, Steebréckenerstrooss",,49.532422,5.993222,,,0,,,0
110505002,,"Siebenaler, Bei der Kierch",,50.009662,6.025143,,,0,,,0
220803027,,"Mondercange, Kummerhéicht",,49.533465,5.99631,,,0,,,0
220803026,,"Mondercange, Waeschbur",,49.5312,5.990505,,,0,,,0
220803025,,"Mondercange, Schwämm",,49.529344,5.983155,,,0,,,0
220803024,,"Mondercange, Route de Reckange",,49.53491,5.989627,,,0,,,0
180508001,,"Gonderange, Am Duerf",,49.692979,6.243709,,,0,,,0
220803023,,"Mondercange, Rommelterhiel",,49.528515,5.98727,,,0,,,0
220803022,,"Mondercange, Police",,49.533241,5.988748,,,0,,,0
180508003,,"Gonderange, Mierchen",,49.700128,6.247007,,,0,,,0
220803021,,"Mondercange, Pafenheck",,49.531103,5.990953,,,0,,,0
110505001,,Siebenaler,,50.011383,6.025595,,,0,,,0
220402028,,"Esch/Alzette, Dexia",,49.503438,5.945654,,,0,,,0
180508002,,"Gonderange, Eeschëlerstr.",,49.692675,6.252879,,,0,,,0
220803020,,"Mondercange, Oswald",,49.535939,5.98973,,,0,,,0
110302001,,Grindhausen/Grantzen,,50.083584,6.058007,,,0,,,0
160803002,,Bouferknupp,,49.681918,6.137922,,,0,,,0
160803001,,"Boufer, Maison de Retraite",,49.689619,6.140464,,,0,,,0
8211452,,Luxembourg-Franciscaines,,49.6094063,6.1136286,,,0,,,0
220402022,,"Esch/Alzette, Cite Verte",,49.509699,5.968199,,,0,,,0
220402020,,"Esch/Alzette, Cinquantenaire",,49.507324,5.983668,,,0,,,0
220402027,,"Esch/Alzette, Delheicht",,49.500629,5.982574,,,0,,,0
220402026,,"Esch/Alzette, Bibliothèque mun.",,49.499733,5.984452,,,0,,,0
190402007,,"Garnich, Holzemer Stroos",,49.611324,5.952715,,,0,,,0
220402025,,"Esch/Alzette, Conserv. de musique",,49.489801,5.97552,,,0,,,0
211001003,,"Bech-Kleinmacher, Furwee",,49.52767,6.354563,,,0,,,0
190402005,,"Garnich, Schmëtt",,49.616581,5.952138,,,0,,,0
190402004,,"Garnich, Rixegoard",,49.615452,5.957429,,,0,,,0
190402002,,"Garnich, Brill",,49.613532,5.950127,,,0,,,0
160402002,,"Fischbach/Mersch, Paschtoueschgaart",,49.745931,6.185411,,,0,,,0
190402001,,"Garnich, Botterkräiz",,49.61094,5.949735,,,0,,,0
160402001,,"Fischbach/Mersch, Kräizerbierg",,49.747104,6.190744,,,0,,,0
211001001,,"Bech-Kleinmacher, Caves coop.",,49.527854,6.347698,,,0,,,0
211001002,,"Bech-Kleinmacher, Centre",,49.532004,6.354454,,,0,,,0
170603001,,"Givenich, Am Duerf",,49.747106,6.478834,,,0,,,0
200412002,,"Gasperich, Beethoven",,49.589641,6.118308,,,0,,,0
200412001,,"Gasperich, Al Gasperich",,49.592234,6.121311,,,0,,,0
220402019,,"Esch/Alzette, rue Nelson Mandela",,49.490284,5.978832,,,0,,,0
220402018,,"Esch/Alzette, Rue Large",,49.497344,5.980455,,,0,,,0
220803031,,"Mondercange, A Bosselesch",,49.532592,5.986977,,,0,,,0
220803030,,"Mondercange, Dokter",,49.531007,5.990696,,,0,,,0
220105004,,"Noertzange, Lohrwies",,49.510057,6.049832,,,0,,,0
150508003,,"Hostert, Jos Becker",,49.65864,6.22751,,,0,,,0
220402012,,"Esch/Alzette, Bd. Hubert Clement",,49.510306,5.985874,,,0,,,0
200412009,,"Gasperich, Gaasperecherbierg",,49.593035,6.116987,,,0,,,0
220105005,,"Noertzange, Rue Principale",,49.509861,6.060842,,,0,,,0
200412008,,"Gasperich, François Hogenberg",,49.586782,6.120912,,,0,,,0
220105002,,"Noertzange, Gare",,49.507915,6.050514,,,0,,,0
150508001,,"Hostert, Folschterwee",,49.81022,5.866748,,,0,,,0
200412007,,"Gasperich, Déportation",,49.593795,6.127986,,,0,,,0
220105003,,"Noertzange, Route de Kayl",,49.507897,6.05897,,,0,,,0
150508002,,"Hostert, Wäschbur",,49.808711,5.866498,,,0,,,0
200412006,,"Gasperich, Cloche d'Or",,49.583449,6.115338,,,0,,,0
130101001,,"Bivels, Camping",,49.950495,6.195861,,,0,,,0
200412005,,"Gasperich, Clemenceau",,49.589887,6.127856,,,0,,,0
220105001,,"Noertzange, Am Duerf",,49.508266,6.056489,,,0,,,0
220402015,,"Esch/Alzette, Bourgronn",,49.492606,5.993385,,,0,,,0
200412004,,"Gasperich, Emile Bian",,49.580229,6.116829,,,0,,,0
130101003,,"Bivels, Loch",,49.9566,6.190877,,,0,,,0
220402014,,"Esch/Alzette, Bd Prince Henri",,49.491931,5.974739,,,0,,,0
200412003,,"Gasperich, Bei der Auer",,49.591276,6.12473,,,0,,,0
130101002,,"Bivels, Kierch",,49.959518,6.192896,,,0,,,0
220402013,,"Esch/Alzette, Bd. Pierre Dupong",,49.510497,5.994595,,,0,,,0
220803009,,"Mondercange, Hanner Tillen",,49.532548,5.992869,,,0,,,0
220803008,,"Mondercange, Feileschter",,49.53904,5.986193,,,0,,,0
220803007,,"Mondercange, Dirbett",,49.524454,5.988501,,,0,,,0
220803006,,"Mondercange, Cité Steichen",,49.520134,5.986362,,,0,,,0
220803005,,"Mondercange, Centre",,49.531186,5.987907,,,0,,,0
180602001,,Lellig,,49.7201,6.435,,,0,,,0
220803004,,"Mondercange, Blummestrooss",,49.52455,5.98873,,,0,,,0
220803003,,"Mondercange, Blach",,49.53887,5.986204,,,0,,,0
220803002,,"Mondercange, Am Buttick",,49.531016,5.990723,,,0,,,0
220402009,,"Esch/Alzette, Belval",,49.495038,5.954644,,,0,,,0
220803001,,"Mondercange, A.Thinnes",,49.53104,5.987487,,,0,,,0
220402008,,"Esch/Alzette, Rue Batty Weber",,49.503313,5.966536,,,0,,,0
220402007,,"Esch/Alzette, Av. du Rock'n'Roll",,49.500572,5.947532,,,0,,,0
220402006,,"Esch/Alzette, Maison du Savoir",,49.502661,5.949612,,,0,,,0
220402001,,"Esch/Alzette, Place des Remparts",,49.496617,5.981218,,,0,,,0
220402005,,"Esch/Alzette, Av. de la Paix",,49.508502,5.983664,,,0,,,0
120102001,,"Surré, Bei der Bréck",,49.90292,5.779146,,,0,,,0
220402004,,"Esch/Alzette, Auszéibréck",,49.498703,5.970868,,,0,,,0
120102002,,"Surré, Gënzebierg",,49.902737,5.781944,,,0,,,0
220402002,,"Esch/Alzette, Villa Mousset",,49.505277,5.987621,,,0,,,0
200802004,,"Heisdorf, Klouster",,49.674518,6.13733,,,0,,,0
220803019,,"Mondercange, Op der Kopp",,49.520203,5.986274,,,0,,,0
220803018,,"Mondercange, Neistrooss",,49.536177,5.989563,,,0,,,0
220803017,,"Mondercange, Musekssall",,49.528835,5.987817,,,0,,,0
220803016,,"Mondercange, Molter",,49.53522,5.983539,,,0,,,0
200802001,,"Heisdorf, Altersheem",,49.675997,6.13497,,,0,,,0
220803015,,"Mondercange, Mausereck",,49.538983,5.986736,,,0,,,0
200802002,,"Heisdorf, Bei der Parkmauer",,49.671171,6.135891,,,0,,,0
220803014,,"Mondercange, Laemerech",,49.53524,5.983649,,,0,,,0
200802003,,"Heisdorf, Gare",,49.675028,6.139421,,,0,,,0
220803013,,"Mondercange, Krombach",,49.528684,5.997211,,,0,,,0
220803012,,"Mondercange, Kiemel",,49.528161,5.982288,,,0,,,0
220803011,,"Mondercange, Katzebach",,49.528794,5.996955,,,0,,,0
220803010,,"Mondercange, J.Bleser Plaz",,49.531592,5.985532,,,0,,,0
120504001,,Hierheck,,49.873707,5.9305,,,0,,,0
180508008,,"Godbrange, Op der Haerdchen",,49.734,6.229698,,,0,,,0
170202001,,"Bech, Bei der Gemeng",,49.751842,6.362709,,,0,,,0
180508005,,"Gonderange, Schoul",,49.692968,6.247786,,,0,,,0
180508004,,"Gonderange, Op der Breck",,49.693634,6.242909,,,0,,,0
180508006,,"Gonderange, Stohlbour",,49.691333,6.239586,,,0,,,0
170202005,,"Bech, Um Faubourg",,49.752731,6.359481,,,0,,,0
170202003,,"Bech, Béiwerwiss",,49.748371,6.363578,,,0,,,0
170202002,,"Bech, Beim Weiher",,49.752352,6.362182,,,0,,,0
191102001,,"Hagen, 2 Stengëforterstrooss",,49.649113,5.928005,,,0,,,0
500000001,,"Alsdorf (Eifel), Abzw. Kaschenbach",,49.881659,6.466595,,,0,,,0
500000002,,"Alsdorf (Eifel), Gasthaus Hoffmann",,49.887309,6.467037,,,0,,,0
500000005,,"Bilzingen Ort, Wincheringen",,49.598258,6.451684,,,0,,,0
500000006,,"Bitburg, Echternacher Str.",,49.960959,6.517054,,,0,,,0
500000003,,"Alsdorf (Eifel), Im Brühl",,49.890629,6.467058,,,0,,,0
191102004,,"Hagen, Laach",,49.651459,5.923506,,,0,,,0
500000009,,"Bitburg, ZOB",,49.976328,6.526933,,,0,,,0
191102005,,"Hagen, Op Eechelter",,49.653737,5.921201,,,0,,,0
8730086,,BESANCON-FRANCHE COMTE TGV,,47.3087051,5.955964,,,0,,,0
191102002,,"Hagen, Bréck",,49.65025,5.936926,,,0,,,0
500000007,,"Bitburg, Masholder B257 Abzw.",,49.954897,6.509962,,,0,,,0
191102003,,"Hagen, Kiirch",,49.64867,5.92928,,,0,,,0
500000008,,"Bitburg, Maximiner Wäldchen",,49.963496,6.51875,,,0,,,0
8730082,,BELFORT-MONTBELIARD TGV,,47.5857593,6.8976009,,,0,,,0
110704001,,Holler,,50.122451,6.034117,,,0,,,0
160203001,,"Buschdorf, Belle Vue",,49.746713,6.01028,,,0,,,0
180501001,,Altlinster,,49.722196,6.21802,,,0,,,0
170607001,,Burer Millen,,49.771499,6.510668,,,0,,,0
170607002,,Hierber Millen,,49.740703,6.42496,,,0,,,0
160203002,,"Buschdorf, Helpërtwee",,49.751125,6.0118,,,0,,,0
160203003,,"Buschdorf, Määschhaff",,49.750493,6.006854,,,0,,,0
161105001,,Marienthal,,49.710179,6.058765,,,0,,,0
170607003,,Pafebierg,,49.766351,6.452656,,,0,,,0
170607004,,Mompach-Kléngelbaach,,49.751599,6.463773,,,0,,,0
120301002,,"Erpeldange/Eschweiler, Knupp",,49.977413,5.947031,,,0,,,0
110412004,,"Wahlhausen, Beim Chalet",,49.990085,6.097125,,,0,,,0
120301001,,Erpeldange,,49.97744,5.947392,,,0,,,0
170303001,,"Grundhof, Grondhaff",,49.835838,6.329753,,,0,,,0
110412003,,"Wahlhausen Dickt, An der Deckt",,49.98965,6.102383,,,0,,,0
170303002,,"Grundhof, Bei der Ernz",,49.83521,6.329829,,,0,,,0
110412007,,"Wahlhausen Dickt, Op Solk",,49.987351,6.106526,,,0,,,0
150504001,,"Eschette, Duerf",,49.822869,5.886747,,,0,,,0
500000020,,Irrel ZOB,,49.846012,6.456454,,,0,,,0
110606001,,"Troisvierges, Gare",,50.11915,5.991186,,,0,,,0
500000023,,Karthaus,,49.710417,6.596666,,,0,,,0
500000024,,"Kastel, Staadt/Abzw.",,49.557704,6.540242,,,0,,,0
110606003,,"Troisvierges, Millebierg",,50.118713,5.995509,,,0,,,0
500000021,,"Kahren, Saarburg",,49.59618,6.507042,,,0,,,0
110606002,,"Troisvierges, Mairie",,50.121439,6.001047,,,0,,,0
500000022,,"Karenweg, Bitburg",,49.971928,6.523505,,,0,,,0
110606005,,"Troisvierges, Police",,50.114789,5.989529,,,0,,,0
200412013,,"Gasperich, Louis de Froment",,49.590252,6.11758,,,0,,,0
500000027,,"Konz, Konz Mitte",,49.700056,6.573475,,,0,,,0
110606004,,"Troisvierges, Pasterknapp",,50.128702,6.004329,,,0,,,0
200412012,,"Gasperich, Lascombes",,49.594264,6.125523,,,0,,,0
500000028,,Kreuz-Konz,,49.703707,6.577287,,,0,,,0
110606007,,"Troisvierges, Bënzelterstrooss",,50.119529,6.003041,,,0,,,0
200412011,,"Gasperich, Klensch",,49.593159,6.119429,,,0,,,0
500000025,,Koblenz Hbf,,50.351099,7.588635,,,0,,,0
110606006,,"Troisvierges, Tomm",,50.124904,6.001474,,,0,,,0
200412010,,"Gasperich, Guillaume Kroll",,49.581878,6.112221,,,0,,,0
500000026,,Köln Hbf,,50.9425,6.958059,,,0,,,0
500000029,,"Longuich, Parkplatz",,49.811474,6.760449,,,0,,,0
200704001,,"Schrassig, Bastenhaff",,49.609986,6.258778,,,0,,,0
200704002,,"Schrassig, Schlassgewan",,49.614541,6.255864,,,0,,,0
200412019,,"Gasperich, Stumper",,49.583798,6.1185,,,0,,,0
200704003,,"Schrassig, Schwaarz Kaz",,49.612996,6.258997,,,0,,,0
200412018,,"Gasperich, Scharfen Eck",,49.57945,6.112987,,,0,,,0
200412017,,"Gasperich, Ruppert",,49.583615,6.113682,,,0,,,0
200509001,,Waldhaff,,49.656991,6.191601,,,0,,,0
200412016,,"Gasperich, Richard Wagner",,49.589159,6.12426,,,0,,,0
200412015,,"Gasperich, Raiffeisen",,49.586673,6.116906,,,0,,,0
200412014,,"Gasperich, Plantin",,49.589738,6.11642,,,0,,,0
121001001,,"Berlé, Um Dréisch",,49.953004,5.858098,,,0,,,0
220901001,,"Lamadelaine, Avenue de la Gare",,49.551415,5.848683,,,0,,,0
140603003,,"Ingeldorf, Cité Longchamps",,49.857068,6.141622,,,0,,,0
500000012,,Ehrang,,49.809408,6.688235,,,0,,,0
140603002,,"Ingeldorf, Café de la Station",,49.853357,6.131238,,,0,,,0
500000013,,Emden Hbf,,53.369043,7.195017,,,0,,,0
140603001,,"Ingeldorf, Bei der Bréck",,49.851426,6.133913,,,0,,,0
500000010,,"Dillingen (Saar), Eissporthalle",,49.346701,6.711075,,,0,,,0
500000011,,Dortmund Hbf,,51.517498,7.458887,,,0,,,0
220901005,,"Lamadelaine, Maragole",,49.54819,5.849845,,,0,,,0
200412023,,"Gasperich, Leonardo da Vinci",,49.581337,6.121191,,,0,,,0
220901004,,"Lamadelaine, Lycée Technique Mathias Adam",,49.554205,5.860631,,,0,,,0
500000017,,"Freudenburg, Lindenstrasse",,49.541616,6.533765,,,0,,,0
200412022,,"Gasperich, Jean Piret",,49.583386,6.117847,,,0,,,0
220901003,,"Lamadelaine, Kierch",,49.545053,5.854264,,,0,,,0
500000014,,Emden-Aussenhafen,,53.344167,7.186108,,,0,,,0
190601001,,Dondelange/Dondel,,49.687897,6.029964,,,0,,,0
200412021,,"Gasperich, Gerhard Mercator",,49.582692,6.123215,,,0,,,0
220901002,,"Lamadelaine, Gare",,49.553341,5.861931,,,0,,,0
140603004,,"Ingeldorf, Kiirchplaz",,49.848682,6.127759,,,0,,,0
190601002,,"Dondelange, Pompstatioun",,49.695546,6.025143,,,0,,,0
200412020,,"Gasperich, Millewee",,49.592062,6.127036,,,0,,,0
220901009,,"Lamadelaine, Spuerkeess",,49.549031,5.850343,,,0,,,0
220901008,,"Lamadelaine, Schoul",,49.546563,5.856185,,,0,,,0
220901007,,"Lamadelaine, Rte de Luxembourg",,49.552564,5.854514,,,0,,,0
500000018,,"Heckingplatz, Saarburg",,49.60661,6.544619,,,0,,,0
220901006,,"Lamadelaine, Op Gehren",,49.54746,5.85144,,,0,,,0
500000019,,Igel,,49.707375,6.550666,,,0,,,0
130206001,,"Longsdorf, Pompstatioun",,49.897677,6.205833,,,0,,,0
150703001,,"Kapweiler, Kapell",,49.739088,5.968591,,,0,,,0
200424001,,"Pulvermuhl, Hammerdällchen",,49.608823,6.150721,,,0,,,0
150516002,,Héiltzerstee,,49.809146,5.78392,,,0,,,0
150516001,,Goelt,,49.82196,5.854753,,,0,,,0
8225211,,Piennes-Place,,49.4575996,5.9939945,,,0,,,0
150703002,,"Kapweiler, Lavandier",,49.740412,5.96451,,,0,,,0
8225212,,Piennes-Place,,49.4825195,6.0108467,,,0,,,0
500000041,,"Mettlach, Weisse Mark",,49.510415,6.568478,,,0,,,0
221304014,,"Soleuvre, Um Bur",,49.526686,5.939533,,,0,,,0
500000042,,Münster,,51.956888,7.6359,,,0,,,0
221304013,,"Soleuvre, Reitschoul",,49.537024,5.938887,,,0,,,0
221304016,,"Soleuvre, Dickskopp",,49.517981,5.933236,,,0,,,0
500000040,,"Mettlach, Schiffsanlegestelle",,49.49334,6.591643,,,0,,,0
221304015,,"Soleuvre, Kuss",,49.51981,5.926585,,,0,,,0
500000045,,"Nennig, Sparkasse",,49.53345,6.380431,,,0,,,0
221304010,,"Soleuvre, Huuschetwee",,49.517485,5.945442,,,0,,,0
500000046,,"Nennig, Zoll",,49.541834,6.373305,,,0,,,0
500000043,,"Nennig, Bahnhof",,49.538444,6.376528,,,0,,,0
221304012,,"Soleuvre, Pl. de l'Indépendance",,49.5221,5.936226,,,0,,,0
500000044,,"Nennig, Römische Villa",,49.529619,6.383289,,,0,,,0
221304011,,"Soleuvre, Jugendhaus",,49.518282,5.936437,,,0,,,0
500000049,,Niederweis,,49.870746,6.465733,,,0,,,0
500000048,,"Niederstedem, Abzweigung",,49.933807,6.49349,,,0,,,0
180302001,,"Flaxweiler, Buchholz",,49.661364,6.362118,,,0,,,0
180302003,,"Flaxweiler, Am Faubourg",,49.662392,6.346471,,,0,,,0
220503001,,"Hellange, Beteburgerstrooss",,49.506126,6.141885,,,0,,,0
220503002,,"Hellange, Hoëner Halt",,49.510462,6.158281,,,0,,,0
110817001,,Sassel,,50.098683,5.996707,,,0,,,0
220503003,,"Hellange, Kiirch",,49.507566,6.148446,,,0,,,0
200205001,,Milbech,,49.587827,6.245837,,,0,,,0
221304017,,"Soleuvre, Zolwerknapp",,49.522578,5.93697,,,0,,,0
500000030,,"Losheim, Bahnhof",,49.506625,6.745021,,,0,,,0
221304003,,"Soleuvre, Cité 2000",,49.519631,5.943912,,,0,,,0
500000031,,"Losheim, Heimlingen",,49.507077,6.734073,,,0,,,0
160901001,,"Beringen, Wäschbur",,49.758242,6.114695,,,0,,,0
221304005,,"Soleuvre, Cité Scheierhaff",,49.52356,5.926516,,,0,,,0
221304004,,"Soleuvre, Cité Kauffmann",,49.521353,5.915585,,,0,,,0
500000034,,"Merzig, Stadthalle",,49.441676,6.63395,,,0,,,0
500000035,,"Merzkirchen, Abzw.",,49.588588,6.468545,,,0,,,0
190102001,,"Hautcharage, Crèche",,49.576976,5.909711,,,0,,,0
500000032,,"Losheim, Merziger Str.",,49.506928,6.741153,,,0,,,0
221304001,,"Soleuvre, Aessen",,49.532048,5.943303,,,0,,,0
190102002,,"Hautcharage, Scheedwee",,49.5723,5.901374,,,0,,,0
500000033,,"Merzig, Bahnhof",,49.436936,6.63444,,,0,,,0
120605001,,"Pintsch, An der Kéier",,49.992957,6.011201,,,0,,,0
190102003,,"Hautcharage, Stade",,49.57369,5.919755,,,0,,,0
500000038,,"Mettlach, Keuchingen",,49.496938,6.586038,,,0,,,0
190102004,,"Hautcharage, Um Kläppchen",,49.575298,5.909195,,,0,,,0
500000039,,"Mettlach, Park",,49.491686,6.59345,,,0,,,0
190102005,,"Hautcharage, Op der Kapel",,49.580339,5.909983,,,0,,,0
500000036,,Mesenich frontière,,49.725723,6.490863,,,0,,,0
500000037,,"Mettlach, Geissert",,49.493519,6.607185,,,0,,,0
150204001,,"Reimberg, Michel Lucius",,49.794809,5.94653,,,0,,,0
140311001,,Closdelt,,49.90307,6.12145,,,0,,,0
150204002,,Reimberg,,49.795815,5.951261,,,0,,,0
221304007,,"Soleuvre, Déifferdengerstrooss",,49.522615,5.920743,,,0,,,0
221304006,,"Soleuvre, Collectrice",,49.531097,5.941344,,,0,,,0
140311002,,"Flebour, Op der Fléiber",,49.908208,6.109248,,,0,,,0
221304009,,"Soleuvre, Emile Mayrisch",,49.523539,5.932156,,,0,,,0
500000063,,"Perl, Maimühle",,49.472215,6.372628,,,0,,,0
500000064,,"Perl, Schampaul",,49.472319,6.383598,,,0,,,0
500000061,,"Perl, Bahnhofstrasse",,49.473103,6.378476,,,0,,,0
500000062,,"Perl, Central-Hotel",,49.47319,6.385871,,,0,,,0
500000067,,"Besch (D), Chemiewerk",,49.5183,6.376888,,,0,,,0
110201002,,"Consthum, Kémel",,49.972398,6.058227,,,0,,,0
210902001,,Roedt,,49.569591,6.28388,,,0,,,0
500000068,,"Besch (D), Ortsmitte",,49.504972,6.379425,,,0,,,0
110201001,,"Consthum, Ennescht Duerf",,49.972371,6.050083,,,0,,,0
500000065,,"Perl, Schengen Lyzeum",,49.477919,6.386958,,,0,,,0
500000066,,"Sinz (D), Ortsmitte",,49.532522,6.432147,,,0,,,0
151005001,,Kuborn,,49.870033,5.901642,,,0,,,0
500000069,,"Portz, Abzweigung",,49.576805,6.491746,,,0,,,0
140205001,,"Selz, An der Lengt",,49.881682,6.186862,,,0,,,0
140205002,,Selz,,49.878768,6.188368,,,0,,,0
160702001,,"Lintgen, An der Kléck",,49.714262,6.127848,,,0,,,0
110201003,,"Consthum, Knupp",,49.973524,6.052955,,,0,,,0
8700294,,Brumath,,48.6208261,7.6055955,,,0,,,0
500000060,,"P+R, Echternacherbrück",,49.814549,6.435861,,,0,,,0
400000120,,"Angevillers, Place",,49.38694,6.04327,,,0,,,0
160702002,,"Lintgen, Gare",,49.720693,6.123083,,,0,,,0
8700293,,Bollwiller(Lutterb),,47.906201,7.4208229,,,0,,,0
160702003,,"Lintgen, Kraïzong",,49.72033,6.125117,,,0,,,0
500000052,,Norddeich Mole,,53.589172,7.215987,,,0,,,0
500000053,,"Oberbillig, Kirche",,49.710245,6.503938,,,0,,,0
500000050,,"Nittel, Bahnhof",,49.653906,6.441822,,,0,,,0
500000051,,"Nittel, Rochusstrasse",,49.651194,6.452245,,,0,,,0
500000056,,"Orscholz, Sportplatz",,49.507894,6.531856,,,0,,,0
500000057,,"Orscholz, Post",,49.505402,6.52093,,,0,,,0
500000054,,"Oberleuken, Ortsmitte",,49.505945,6.465893,,,0,,,0
500000055,,"Orscholz, Cloef",,49.505982,6.531607,,,0,,,0
500000058,,"Orscholz, Rehaklinik",,49.507861,6.538737,,,0,,,0
500000059,,"Ortsmitte B419, Perl-Besch",,49.504835,6.372608,,,0,,,0
160807001,,"Lorentzweiler, Am Duerf",,49.701563,6.142898,,,0,,,0
160807003,,"Lorentzweiler, Gare",,49.698319,6.140508,,,0,,,0
160807002,,"Lorentzweiler, An der Kléck",,49.70305,6.140799,,,0,,,0
120804001,,Heispelt-Géierekräiz,,49.846611,5.882717,,,0,,,0
400000119,,"Ludelange, Carrefour",,49.398152,5.973162,,,0,,,0
400000118,,"Russange, Mairie",,49.479092,5.955192,,,0,,,0
400000115,,"Thionville, Arlon",,49.358393,6.133562,,,0,,,0
400000114,,"Mulhouse, Gare",,47.751648,7.354277,,,0,,,0
170502001,,Lauterborn,,49.799963,6.391379,,,0,,,0
400000117,,"Aumetz, Poste",,49.41598,5.941257,,,0,,,0
400000116,,"Thionville, Esch",,49.357171,6.138702,,,0,,,0
180208001,,Weidig,,49.717508,6.330702,,,0,,,0
400000113,,"Hussigny, Mines",,49.497935,5.867123,,,0,,,0
400000112,,"Hussigny, Place de l'Eglise",,49.494299,5.870076,,,0,,,0
8700284,,Morhange,,48.8553256,7.1185937,,,0,,,0
8700281,,Erstein,,48.3870592,7.6234026,,,0,,,0
141205001,,Hermeswis,,49.863252,6.31317,,,0,,,0
